SrNo,District_Name,Taluka_Name,Taluka_Latitude,Taluka_Longitude,Month,Year,Soil_Type,Soil_pH,Soil_EC,Organic_Carbon,Nitrogen,Phosphorus,Potassium,Soil_Moisture,Soil_Depth_Class,Avg_Temperature,Min_Temperature,Max_Temperature,Rainfall_mm,Humidity_percent,Wind_Speed_kmph,Solar_Radiation,Evapotranspiration,Cloud_Cover_percent,Crop_Recommended,Crop_Suitability,Crop_Yield_Quintal_per_Hectare
1,BOTAD,Gadhada,21.9682625,71.5769241,1,2015,Black Cotton,6.94,0.93,1.35,348.0,54.1,106.5,20.1,Shallow,15.1,8.9,20.7,1.8,38.6,21.0,513.4,6.34,54.7,Wheat,Yes,26.86
2,VALSAD,Umbergaon,20.1537655,72.7905804,2,2015,Silty,6.08,3.4,1.13,409.4,45.1,398.5,43.8,Medium,14.9,11.7,18.7,1.4,31.5,28.7,983.7,6.92,60.9,Chickpea,Yes,12.64
3,TAPI,Kukarmunda,21.5470826,74.1262241,12,2018,Black Cotton,7.57,2.46,0.39,372.7,14.0,296.6,44.5,Deep,14.3,7.4,16.6,10.0,47.1,19.9,307.9,6.52,43.9,Chickpea,Yes,13.65
4,SURAT,MAHUVA,21.0180294,73.1388718,4,2016,Black Cotton,7.3,1.09,1.09,452.0,27.0,192.6,44.9,Deep,39.6,33.5,42.4,14.4,43.4,19.1,808.9,4.27,24.2,Bajra,Yes,13.99
5,VADODARA,Vaghodia,22.3003935,73.3760638,2,2019,Silty,6.89,1.84,1.72,441.7,19.5,375.4,9.7,Shallow,15.9,9.3,18.7,15.1,42.3,32.9,746.3,1.92,29.1,Chickpea,Yes,10.92
6,ANAND,Khambhat,22.3166806,72.6243126,2,2023,Loam,6.93,3.27,1.76,280.4,11.9,478.8,42.7,Shallow,25.1,18.7,29.8,4.3,34.5,16.4,1193.2,5.23,34.3,Jowar,Yes,12.81
7,BHAVNAGAR,Vallabhipur,21.8885909,71.8781618,1,2017,Loam,7.42,0.28,0.21,61.21940425760746,23.2,384.2,14.0,Medium,13.6,6.9,18.0,4.6,46.6,12.0,339.8,4.14,33.5,Mustard,No,9.67248273611326
8,SURAT,Palsana,21.0859408,72.978046,2,2019,Loam,6.11,2.17,0.34,116.2,30.4,618.4,5.2,Deep,22.6,16.1,25.1,1.7,34.9,19.8,706.4,6.31,64.0,Jowar,Yes,12.832885491195064
9,SURAT,MAHUVA,21.0180294,73.1388718,11,2022,Black Cotton,7.06,0.8,0.47,57.5,45.5,89.6,15.5,Shallow,20.1,17.6,26.9,11.3,34.8,26.5,885.8,3.12,15.1,Wheat,Yes,22.66
10,KACHCHH,Mandvi,22.8314482,69.35081,6,2022,Silty,6.15,2.88,0.51,216.0,41.9,245.0,15.6,Shallow,31.2,26.2,35.9,125.5,45.2,17.3,252.6,2.59,48.6,Sesame,Yes,3.55
11,KHEDA,Matar,22.7073839,72.6623162,5,2022,Black Cotton,7.11,3.52,0.55,448.2,45.8,151.0,14.1,Shallow,31.6,24.2,36.0,19.4,48.9,8.8,642.7,3.28,9.1,Bajra,Yes,13.09
12,PATAN,Chanasma,23.7150529,72.1150247,2,2014,Loam,7.3,2.78,0.35,74.86301038243201,25.3,409.1,20.5,Shallow,23.5,20.2,30.0,6.1,35.6,9.0,988.1,6.39,32.6,Urad (Black Gram),No,5.888424162354477
13,KHEDA,Galteshwar,22.8686619,73.3084119,1,2020,Loam,7.4,1.36,1.68,407.1,52.5,577.0,13.5,Deep,25.0,20.2,31.1,2.1,36.3,33.5,465.2,2.11,18.0,Jowar,Yes,14.5
14,SURAT,Olpad,21.3360054,72.7516479,6,2022,Loam,6.13,3.88,0.4,482.4,19.6,120.5,20.7,Deep,29.6,26.5,36.1,599.3,90.8,20.8,444.3,3.03,100.0,Cotton,Yes,14.72
15,VALSAD,Kaprada,20.3445867,73.2166457,6,2023,Black Cotton,8.21,2.89,0.61,175.4,27.5,311.6,14.7,Shallow,29.6,24.2,32.5,178.1,55.9,34.8,449.6,2.16,91.7,Moong (Green Gram),No,5.193926513919431
16,KACHCHH,Rapar,23.570746,70.6450466,11,2016,Loam,6.41,2.67,1.15,73.9,57.4,202.7,15.3,Shallow,12.3,7.6,18.1,3.4,48.1,25.3,930.7,3.9,31.7,Mustard,Yes,12.64
17,BOTAD,Botad,22.1686,71.6685,3,2017,Black Cotton,7.16,0.25,0.52,428.7,30.1,570.9,30.7,Deep,41.0,36.0,46.6,18.8,48.5,24.5,1092.9,5.63,39.6,Jowar,Yes,14.212870760120431
18,BANASKANTHA,Suigam,24.1515492,71.3593406,8,2018,Loam,7.13,0.98,0.67,449.7,9.4,148.0,18.5,Shallow,25.4,22.2,29.5,459.2,84.3,36.9,575.3,3.18,100.0,Castor,Yes,11.55
19,BHARUCH,Vagra,21.8447606,72.8448749,9,2020,Black Cotton,7.85,3.21,1.63,259.5,20.0,365.7,18.7,Deep,28.3,22.6,30.9,363.4,66.9,19.4,604.5,0.5,100.0,Castor,Yes,12.04
20,SURENDRANAGAR,Chotila,22.4243903,71.1992399,5,2020,Silty,6.31,0.37,0.13,283.5,60.0,277.5,30.0,Deep,27.4,24.0,32.5,1.0,39.6,9.2,1149.9,4.33,21.9,Bajra,Yes,11.14
21,SABARKANTHA,Vadali,23.9411124,73.0403755,2,2018,Silty,6.45,1.28,1.25,480.3,26.8,514.8,5.3,Deep,16.0,9.2,21.4,14.9,47.4,25.4,281.6,4.59,51.0,Wheat,Yes,27.75
22,KACHCHH,Gandhidham,23.0718743,70.131715,11,2019,Silty,7.34,1.77,1.35,483.8,19.9,575.3,25.1,Medium,24.1,16.5,27.3,9.4,36.5,20.8,958.2,4.8,50.3,Jowar,Yes,15.12
23,AHMADABAD,Daskroi,22.9538235,72.7502756,10,2018,Black Cotton,8.32,2.25,0.98,119.8,18.3,314.2,25.9,Shallow,28.3,25.0,30.8,48.8,48.7,16.3,778.1,4.13,49.3,Bajra,No,10.25886345768427
24,KACHCHH,Mundra,22.8393153,69.7249477,12,2015,Sandy,6.51,2.98,1.72,354.4,15.5,530.1,13.9,Deep,20.5,17.1,23.5,17.7,35.4,5.6,748.6,3.28,71.9,Chickpea,Yes,17.12
25,SURENDRANAGAR,Dasada,23.3238913,71.831442,5,2023,Silty,7.03,1.4,1.74,148.7,52.4,124.2,4.8,Medium,37.9,34.1,42.7,1.6,50.0,9.5,975.4,5.02,56.7,Bajra,Yes,15.34
26,BHARUCH,Jhagadia,21.7157199,73.1497026,10,2018,Black Cotton,6.98,3.84,0.27,388.5,39.4,222.0,5.5,Shallow,24.7,21.0,29.7,13.9,36.0,30.4,910.9,4.2,52.5,Wheat,Yes,25.83
27,JUNAGADH,Vanthali,21.4772602,70.3321207,4,2022,Black Cotton,6.73,1.1,0.34,58.0,48.6,436.8,37.4,Medium,34.9,29.7,38.3,11.7,39.9,26.0,1089.1,5.61,46.6,Jowar,Yes,16.32
28,VADODARA,Sinor,21.9111503,73.3384024,10,2018,Loam,6.89,0.74,0.98,237.8,20.3,698.0,20.7,Medium,28.3,25.3,30.8,60.7,44.3,23.0,849.1,3.7,66.6,Sesame,No,4.965958387380715
29,KHEDA,Kheda,22.7516133,72.6857205,11,2014,Black Cotton,6.98,0.26,0.98,322.6,32.4,337.3,4.2,Medium,24.4,16.6,27.0,9.0,43.1,13.9,396.0,4.71,42.7,Wheat,Yes,31.65
30,JUNAGADH,Vanthali,21.4772602,70.3321207,12,2021,Silty,7.13,1.13,1.52,490.7,18.4,408.3,18.5,Deep,25.0,20.5,31.0,11.3,49.8,22.8,1023.9,3.35,26.7,Jowar,Yes,11.75
31,SURAT,MAHUVA,21.0180294,73.1388718,9,2022,Silty,6.96,1.32,0.42,357.8,36.4,201.8,35.3,Shallow,29.1,22.3,36.0,301.8,73.2,10.9,1015.7,1.12,100.0,Rice,Yes,20.18
32,BHAVNAGAR,Gariadhar,21.5385705,71.5792958,7,2016,Black Cotton,8.38,0.35,1.43,154.6,39.3,308.4,5.5,Medium,32.4,25.8,38.0,527.0,95.0,6.6,51.5,2.53,100.0,Castor,No,10.334539225720404
33,NARMADA,Garudeshwar,21.8898443,73.6551011,3,2021,Black Cotton,6.85,0.16,0.65,56.4,24.7,329.9,12.5,Medium,40.4,34.7,46.8,11.3,35.9,37.7,380.3,4.25,23.8,Urad (Black Gram),No,6.250376798177028
34,SABARKANTHA,Poshina,24.3731337,73.0324745,6,2021,Silty,6.46,3.85,1.27,244.7,21.6,699.6,38.7,Shallow,28.1,20.2,31.6,218.7,65.0,15.2,678.3,4.34,97.1,Moong (Green Gram),No,4.545994031113337
35,SABARKANTHA,Prantij,23.4372086,72.8518061,6,2023,Loam,6.99,2.5,1.25,368.8,41.3,594.9,29.0,Deep,27.2,24.7,32.9,400.4,75.9,31.7,216.7,0.66,100.0,Castor,Yes,11.1
36,VALSAD,Valsad,20.6067767,72.9272881,5,2021,Black Cotton,8.29,3.23,0.9,65.4,46.5,196.6,31.1,Deep,41.9,39.8,47.9,28.1,43.5,21.5,875.1,5.22,48.6,Bajra,No,10.708489293816998
37,SURAT,Madvi,21.21105087919355,73.02497339854838,6,2022,Black Cotton,6.81,0.3,1.5,457.4,21.6,315.4,8.0,Shallow,27.8,23.1,30.5,322.9,75.7,80.0,987.2,2.49,100.0,Castor,Yes,13.22
38,MAHESANA,Jotana,23.4711736,72.2927648,12,2014,Silty,6.2,1.81,0.5,200.5,59.0,288.8,40.8,Deep,18.7,14.0,24.9,5.3,43.8,27.9,814.6,2.08,57.2,Wheat,Yes,22.88
39,JUNAGADH,Keshod,21.3148629,70.2678937,4,2017,Silty,6.94,3.17,1.11,160.3,59.1,691.9,25.2,Shallow,40.6,35.1,46.5,2.7,30.6,14.3,369.1,4.09,12.9,Bajra,No,14.074538584188224
40,ANAND,Anklav,22.3775417,73.0021216,1,2023,Black Cotton,8.01,3.47,0.99,245.3,58.0,89.5,22.6,Medium,13.7,9.8,20.2,7.8,33.7,10.0,839.2,4.89,52.8,Wheat,Yes,22.05
41,ANAND,Khambhat,22.3166806,72.6243126,11,2015,Black Cotton,8.31,2.23,1.57,232.1,53.8,319.0,37.6,Medium,12.8,9.9,16.7,6.8,49.1,7.9,1036.8,2.44,12.6,Wheat,No,22.43626080334007
42,RAJKOT,Jasdan,22.0399,71.2046,7,2015,Silty,7.23,3.77,0.82,460.4,7.8,237.0,15.4,Shallow,27.5,20.4,30.0,448.3,82.2,31.9,571.2,3.8,100.0,Rice,Yes,25.13
43,AHMADABAD,Viramgam,23.1224522,72.0483946,1,2018,Loam,6.37,3.06,1.67,195.0,15.0,143.1,30.3,Shallow,20.1,15.6,23.2,2.0,37.0,18.4,934.5,5.87,42.3,Wheat,Yes,26.75
44,VADODARA,Karajan,22.30309615105263,73.2793426991228,8,2020,Black Cotton,6.91,1.13,1.38,83.5,28.6,234.1,31.2,Medium,26.0,22.8,28.3,484.4,95.0,80.0,733.8,1.03,100.0,Castor,Yes,10.39
45,SURENDRANAGAR,Chuda,22.4815114,71.6881728,2,2019,Silty,6.89,0.22,0.13,462.9,52.4,424.2,26.7,Deep,14.7,7.0,17.6,11.0,40.3,29.5,588.3,4.12,14.1,Chickpea,Yes,13.81
46,ARAVALLI,Dhansura,23.3467,73.2054,2,2016,Black Cotton,7.53,2.15,0.43,394.8,24.3,672.8,29.8,Shallow,13.7,7.8,19.5,3.3,33.9,32.7,717.8,5.75,55.1,Wheat,Yes,21.4
47,AMRELI,Babra,21.8485451,71.3036656,3,2019,Silty,6.65,1.8,0.61,159.1,8.1,379.8,15.3,Medium,32.7,30.2,39.6,0.9,42.0,18.7,800.9,6.77,53.2,Bajra,Yes,13.26
48,BHAVNAGAR,Mahuva,21.0914409,71.7621979,8,2014,Loam,7.41,3.36,1.77,69.6,40.5,75.4,32.4,Medium,28.6,22.0,32.5,356.3,79.2,7.2,671.2,1.89,97.7,Castor,No,10.330314953589816
49,VALSAD,Dharampur,20.5360672,73.1740929,6,2016,Clay,7.36,0.61,0.69,484.8,43.4,304.8,27.6,Shallow,27.1,20.1,32.5,281.0,72.9,29.6,609.6,3.83,88.7,Jowar,Yes,13.61
50,MORBI,Halvad,23.0182418,71.1833818,3,2017,Loam,6.28,3.39,0.27,392.3,50.9,624.4,3.6,Medium,37.7,31.5,40.6,25.2,45.0,36.8,922.5,2.09,33.7,Jowar,Yes,11.3
51,BANASKANTHA,Danta,24.187557,72.7649516,5,2017,Sandy Loam,7.16,0.82,1.25,298.1,29.2,550.1,35.5,Deep,40.6,37.1,43.3,15.2,44.3,36.1,769.2,2.43,63.0,Bajra,No,13.292041640169476
52,DAHOD,Devgadbaria,22.87978639169436,74.10500860548173,2,2020,Loam,7.19,3.54,1.68,225.0,26.8,293.1,18.6,Shallow,11.4,4.7,16.6,10.7,33.8,80.0,1032.9,5.43,16.2,Wheat,Yes,26.64
53,DAHOD,Garbada,22.684669,74.3132146,12,2022,Black Cotton,7.19,0.49,0.59,171.5,7.6,322.9,36.1,Medium,23.6,18.1,28.8,1.0,44.5,16.1,251.0,3.75,42.3,Wheat,Yes,24.06
54,BANASKANTHA,Tharad,24.3897272,71.6292685,9,2022,Loam,6.75,1.91,1.18,491.1,19.0,60.6,35.9,Medium,30.0,27.2,35.8,189.8,56.0,17.2,765.8,5.2,87.5,Jowar,Yes,11.12
55,RAJKOT,Dhoraji,21.7220402,70.4443401,5,2014,Loam,6.04,0.84,0.17,468.7,33.3,692.9,25.4,Medium,36.0,30.1,38.2,1.0,35.6,33.1,664.6,4.0,33.8,Bajra,Yes,13.04
56,ARAVALLI,Dhansura,23.3467,73.2054,2,2018,Black Cotton,6.86,1.75,1.79,114.8,21.2,116.7,16.1,Medium,19.9,17.6,23.7,4.8,47.9,18.0,1195.8,3.35,69.7,Wheat,Yes,27.49
57,BANASKANTHA,Bhabhar,24.0650833,71.6155279,3,2014,Silty,7.32,1.78,0.31,140.9,40.5,285.4,42.8,Shallow,37.9,32.5,43.7,19.4,42.5,19.3,857.4,3.15,16.3,Bajra,Yes,13.78
58,JUNAGADH,Visavadar,21.3417058,70.7534299,4,2021,Black Cotton,6.52,3.67,0.94,87.6,51.9,343.8,40.6,Medium,37.9,31.6,43.2,33.9,44.4,15.3,518.0,2.62,57.9,Bajra,Yes,15.69
59,RAJKOT,VINCHHIYA,22.2102309,71.3796336,8,2017,Loam,6.65,2.31,0.89,492.0,12.1,624.8,4.8,Medium,29.9,27.5,36.0,645.7,95.0,27.8,354.6,2.17,100.0,Soybean,Yes,16.12
60,ANAND,Khambhat,22.3166806,72.6243126,2,2014,Black Cotton,7.37,0.7,0.65,363.4,24.0,661.6,40.5,Shallow,22.0,16.8,25.5,4.4,40.5,11.4,1142.3,2.75,48.7,Wheat,Yes,22.88
61,AHMADABAD,Dhandhuka,22.3816365,71.9791414,11,2014,Black Cotton,6.69,0.88,1.07,320.5,6.7,627.8,25.5,Deep,18.2,15.8,21.7,19.2,33.1,20.8,700.4,2.92,48.3,Chickpea,Yes,14.47
62,PATAN,Saraswati,23.875171,72.166746,9,2019,Silty,6.44,1.0,0.31,241.3,12.7,82.9,42.7,Deep,31.8,25.5,38.5,371.8,71.0,11.0,1010.3,2.47,100.0,Rice,Yes,18.9
63,JAMNAGAR,Jamnagar,22.4732415,70.0552102,1,2014,Silty,7.08,3.54,1.21,251.2,34.5,600.7,20.5,Medium,23.0,19.8,27.9,13.4,42.4,7.6,722.3,5.75,25.9,Urad (Black Gram),No,4.409684625542037
64,JAMNAGAR,Dhrol,22.5675674,70.4164394,9,2019,Silty,7.29,0.84,0.97,265.0,7.5,139.1,16.3,Medium,27.3,23.4,34.0,470.1,84.9,26.7,815.4,2.62,100.0,Sesame,No,3.639950939161319
65,MAHESANA,Jotana,23.4711736,72.2927648,10,2020,Silty,6.84,2.92,1.27,67.06395608819908,31.1,678.6,35.7,Deep,30.8,25.1,35.9,45.1,51.3,10.6,874.1,1.93,75.7,Bajra,Yes,13.2
66,VADODARA,Karajan,22.30309615105263,73.2793426991228,8,2023,Black Cotton,7.83,2.84,0.98,293.6,59.9,360.9,18.2,Shallow,28.7,22.6,35.0,490.4,95.0,80.0,464.8,4.34,100.0,Cotton,Yes,12.01
67,PANCHMAHALS,Halol,22.5025899,73.4691058,6,2021,Silty,6.62,3.74,1.45,158.5,11.7,489.8,18.3,Medium,33.3,27.0,36.7,552.1,92.1,21.2,217.6,1.64,100.0,Castor,Yes,9.09
68,BOTAD,Botad,22.1686,71.6685,1,2017,Black Cotton,8.4,0.94,0.5,77.1,23.2,357.1,31.3,Shallow,20.0,12.7,26.7,0.1,39.6,12.3,1165.7,3.61,47.0,Wheat,Yes,29.13
69,BHAVNAGAR,Bhavnagar,21.7718836,72.1416449,7,2016,Loam,7.27,0.19,1.52,400.3,15.2,536.9,39.5,Medium,26.2,22.5,33.1,568.0,95.0,24.4,435.2,3.85,100.0,Maize,Yes,28.45
70,PANCHMAHALS,Shehera,22.829248945454545,73.03712348181818,1,2016,Black Cotton,6.58,1.22,1.25,120.8,38.6,465.2,19.4,Medium,14.2,10.3,16.9,13.6,36.3,80.0,466.9,5.7,69.7,Wheat,No,20.772053216161687
71,MAHISAGAR,Virpur,23.1890874,73.480854,8,2015,Silty,6.01,2.76,1.67,447.3,47.3,498.7,29.5,Medium,26.8,18.9,31.1,328.3,70.3,30.3,953.0,4.15,100.0,Rice,Yes,39.85
72,AHMADABAD,Sanand,23.0238876,72.3851475,12,2022,Silty,6.3,2.28,0.2,287.4,32.8,422.3,8.4,Medium,17.5,10.1,21.9,15.9,40.5,7.4,367.4,4.0,44.8,Wheat,Yes,30.43
73,DEVBHUMI,DWARKA,22.2424747,68.9671448,10,2017,Loam,6.11,1.41,0.21,497.2,56.4,94.9,42.2,Shallow,25.0,17.2,30.6,24.5,39.9,36.4,663.9,6.47,34.4,Jowar,No,12.782448837223155
74,VADODARA,Karajan,22.30309615105263,73.2793426991228,7,2022,Black Cotton,6.81,3.92,1.52,385.4,58.8,351.0,32.9,Medium,32.1,24.5,35.5,492.4,93.7,80.0,772.8,1.64,100.0,Castor,Yes,13.08
75,BOTAD,Barwala,22.1518623,71.8957058,4,2014,Black Cotton,6.8,1.78,1.02,384.6,47.7,141.1,44.7,Shallow,37.9,34.0,43.3,19.9,38.0,10.4,867.2,3.01,28.5,Urad (Black Gram),Yes,9.64
76,RAJKOT,Upleta,21.7466811,70.2821426,1,2021,Silty,7.0,2.7,1.44,179.8,27.9,147.0,18.2,Deep,23.3,15.8,29.3,8.4,42.1,38.9,775.2,2.63,22.5,Jowar,Yes,12.49
77,RAJKOT,Paddhari,22.4297959,70.6057564,1,2017,Silty,6.71,2.44,0.17,64.2,49.3,431.9,30.9,Shallow,22.8,15.2,24.9,8.5,50.1,9.2,1195.3,4.35,22.5,Wheat,Yes,24.21
78,AHMADABAD,Sanand,23.0238876,72.3851475,11,2022,Silty,6.49,1.47,1.6,249.0,49.2,519.6,34.8,Medium,17.0,14.1,20.1,15.1,36.7,38.2,792.6,4.01,17.9,Wheat,Yes,29.31
79,NARMADA,Garudeshwar,21.8898443,73.6551011,8,2018,Black Cotton,7.55,1.99,0.39,403.6,14.3,518.2,23.0,Deep,31.6,24.7,34.0,562.4,87.2,6.0,99.4,2.34,100.0,Castor,Yes,12.32
80,BHARUCH,Jhagadia,21.7157199,73.1497026,11,2021,Silty,6.5,2.15,0.8,65.54799638834774,44.7,398.2,14.3,Deep,20.2,17.6,22.7,15.4,34.5,12.3,742.4,6.0,25.5,Wheat,Yes,28.07
81,KHEDA,Galteshwar,22.8686619,73.3084119,11,2015,Black Cotton,7.93,0.42,0.74,289.8,8.1,56.1,9.4,Medium,19.6,12.2,26.5,12.6,49.6,13.7,1099.9,5.4,44.4,Wheat,Yes,21.45
82,NARMADA,Nandod,21.8429212,73.4495407,6,2016,Loam,7.31,2.37,1.38,365.0,26.9,100.0,9.0,Shallow,31.7,25.3,35.6,395.6,85.4,29.8,126.7,3.75,100.0,Castor,Yes,11.4
83,PATAN,Chanasma,23.7150529,72.1150247,1,2019,Black Cotton,6.77,3.97,0.93,197.2,56.8,330.7,31.2,Deep,23.6,20.0,26.0,6.0,38.2,32.9,393.6,3.92,29.6,Jowar,Yes,16.49
84,GIR,SOMNATH,20.8957174,70.4080467,8,2020,Black Cotton,7.28,1.66,0.14,196.3,10.1,438.7,16.0,Medium,27.6,19.6,32.4,136.5,48.5,23.3,832.8,2.17,49.8,Cumin,No,3.583912188741785
85,BHARUCH,Jambusar,22.0514367,72.8069758,5,2019,Loam,6.87,2.01,1.15,245.2,12.5,54.4,19.0,Deep,40.3,34.4,46.4,9.3,42.8,16.1,818.4,5.43,38.0,Bajra,No,13.568723483334322
86,DAHOD,Devgadbaria,22.87978639169436,74.10500860548173,6,2017,Silty,6.4,3.15,0.72,468.1,16.0,698.2,9.7,Deep,31.7,24.7,37.7,193.5,50.7,80.0,908.5,4.39,52.7,Jowar,Yes,10.88
87,VADODARA,Vaghodia,22.3003935,73.3760638,8,2023,Black Cotton,6.78,2.05,1.66,355.1,34.9,564.0,17.5,Deep,33.1,30.1,38.4,304.6,72.7,25.4,710.5,3.71,100.0,Castor,Yes,11.31
88,BHARUCH,Jhagadia,21.7157199,73.1497026,10,2022,Black Cotton,7.34,1.81,0.76,393.0,37.4,375.3,16.8,Shallow,27.6,21.2,33.8,43.6,41.3,17.6,973.3,4.39,36.4,Bajra,No,13.858728680424038
89,BHARUCH,Anklesvar,21.76338667452416,73.00471180351391,6,2014,Black Cotton,7.27,3.21,1.68,378.0,33.4,408.7,16.2,Medium,27.8,23.2,33.0,819.2,95.0,80.0,50.0,0.86,100.0,Sugarcane,Yes,780.31
90,SURENDRANAGAR,Limbdi,22.5660006,71.7899425,3,2022,Silty,6.54,1.86,0.55,435.4,34.0,465.4,27.7,Deep,29.7,23.7,32.6,9.8,47.0,37.5,805.8,5.31,27.3,Bajra,Yes,12.26
91,JUNAGADH,Malia,21.11454,70.3736575,7,2023,Silty,6.09,2.56,1.28,333.3,60.0,410.7,23.1,Shallow,30.6,25.7,37.4,231.3,57.0,18.5,667.9,4.11,77.9,Jowar,Yes,12.742893653453104
92,RAJKOT,Jetpur,21.7543725,70.6189391,5,2017,Loam,6.38,2.17,0.39,244.9,45.8,547.8,25.6,Shallow,30.3,23.8,35.0,16.7,46.9,20.6,449.3,4.05,56.2,Bajra,Yes,13.46
93,BHAVNAGAR,Mahuva,21.0914409,71.7621979,8,2015,Loam,7.08,0.99,1.48,306.3,24.3,512.0,29.2,Shallow,30.4,25.2,35.3,487.0,90.6,11.2,936.5,1.02,100.0,Cotton,No,14.13666828588405
94,SABARKANTHA,Khedbrahma,24.0310837,73.0484016,1,2020,Sandy Loam,7.3,0.55,1.57,147.3,44.1,588.5,34.7,Deep,13.6,11.1,17.5,6.9,46.6,32.5,629.3,5.72,51.5,Wheat,Yes,25.38
95,ANAND,Umreth,22.6990518,73.115045,12,2015,Silty,7.16,2.8,1.55,404.0,26.9,679.3,37.5,Medium,23.4,18.5,28.2,4.1,37.3,29.5,293.9,2.48,56.8,Urad (Black Gram),Yes,7.69
96,PANCHMAHALS,KALOL,23.2212398,72.5187447,11,2016,Silty,6.01,3.73,0.57,337.7,18.8,291.7,40.9,Shallow,20.0,17.5,24.1,1.0,32.0,13.0,323.5,4.96,39.0,Wheat,Yes,29.74
97,KHEDA,Kheda,22.7516133,72.6857205,2,2021,Loam,6.73,2.94,0.27,177.3,53.5,139.1,35.3,Shallow,21.3,18.3,26.4,8.6,37.9,13.0,956.6,6.56,46.8,Wheat,Yes,31.87
98,AMRELI,Dhari,21.3280712,71.0262213,7,2019,Silty,6.79,1.03,1.2,146.6,38.1,518.8,14.3,Deep,32.7,29.6,37.7,146.8,52.5,27.8,921.2,5.24,49.9,Moong (Green Gram),Yes,9.33
99,ANAND,Sojitra,22.5391166,72.7192782,6,2019,Loam,6.74,3.36,0.82,286.8,14.5,356.2,44.5,Shallow,26.9,20.2,29.2,97.1,49.8,27.5,677.5,3.59,70.0,Sesame,No,3.278872637050948
100,TAPI,Dolvan,20.902135,73.3331335,3,2017,Black Cotton,6.55,2.37,1.4,335.4,40.4,251.6,20.8,Shallow,29.3,25.4,34.3,1.4,45.0,31.6,362.8,5.53,50.9,Jowar,Yes,13.22
101,BANASKANTHA,Lakhani,24.2310058240942,72.03957018269928,12,2016,Silty,7.38,0.52,1.63,187.5,28.6,390.5,13.3,Deep,20.3,17.3,26.6,15.7,34.7,80.0,1091.7,5.29,15.6,Wheat,Yes,28.74
102,TAPI,Dolvan,20.902135,73.3331335,3,2016,Loam,7.27,3.66,1.36,227.1,22.7,320.6,33.0,Medium,35.5,32.2,37.8,16.4,42.0,7.3,622.7,6.3,64.6,Bajra,Yes,11.93
103,BHAVNAGAR,Mahuva,21.0914409,71.7621979,12,2018,Black Cotton,7.44,1.5,1.75,499.0,47.7,526.1,25.5,Shallow,24.9,18.7,30.1,2.1,30.4,17.1,969.9,3.87,53.4,Jowar,Yes,14.8
104,MAHESANA,Mahesana,23.6015557,72.3867981,12,2016,Silty,6.04,3.69,1.63,274.3,43.5,292.1,43.9,Shallow,19.4,17.0,24.4,10.6,44.3,10.0,521.8,6.2,67.3,Wheat,Yes,29.19
105,RAJKOT,Jasdan,22.0399,71.2046,10,2016,Loam,6.0,0.7,0.89,221.1,34.5,677.0,10.9,Medium,29.9,23.7,33.4,32.2,45.3,12.8,1047.6,2.58,57.7,Bajra,Yes,12.384792407058812
106,AMRELI,Jafrabad,20.8665451,71.3648229,8,2020,Black Cotton,7.89,1.04,0.89,407.8,12.7,57.8,37.7,Shallow,31.2,25.7,36.4,168.9,52.1,33.7,186.3,1.48,97.4,Sesame,Yes,5.32
107,PATAN,Sidhpur,23.9657978,72.3367423,1,2021,Loam,7.06,1.76,1.33,263.2,26.1,327.3,17.2,Shallow,17.9,12.0,23.0,3.9,40.4,36.4,703.1,2.42,30.7,Wheat,No,20.5561605154983
108,PATAN,Sankheshwar,23.79879317530675,71.89748336549079,7,2014,Black Cotton,6.65,2.2,0.92,459.0,32.6,302.4,9.7,Medium,25.9,21.1,31.9,640.9,95.0,80.0,150.7,0.5,100.0,Soybean,Yes,11.54
109,KACHCHH,Abdasa,23.2576703,68.8854644,7,2023,Silty,7.29,3.97,0.4,141.2,22.5,529.8,17.4,Deep,30.4,27.3,35.2,154.0,65.2,36.1,640.6,2.78,67.7,Sugarcane,Yes,714.87
110,RAJKOT,Gondal,21.9575096,70.8009896,6,2016,Black Cotton,7.41,3.22,1.58,58.0,13.1,508.1,8.1,Shallow,32.3,27.9,39.0,688.5,95.0,15.7,50.0,0.5,100.0,Castor,Yes,12.8
111,DANGS,Ahwa,20.7587262,73.6873533,6,2023,Loam,7.17,3.27,0.74,375.0,21.2,165.5,2.1,Deep,26.7,21.1,28.9,668.7,95.0,39.6,125.5,1.49,100.0,Rajma (Kidney Bean),Yes,11.7
112,DANGS,Ahwa,20.7587262,73.6873533,12,2015,Black Cotton,7.55,3.55,0.86,154.6,18.7,94.1,13.0,Shallow,12.9,8.4,15.7,11.2,48.8,18.0,601.0,6.08,58.5,Wheat,Yes,23.24
113,DANGS,Subir,20.7587262,73.68735329999998,6,2014,Silty,7.35,0.34,0.39,206.5,45.3,405.6,40.6,Shallow,32.3,26.4,36.5,444.7,86.6,80.0,78.5,1.44,100.0,Castor,No,10.95039820186018
114,SABARKANTHA,Poshina,24.3731337,73.0324745,1,2015,Sandy Loam,7.33,3.37,0.36,199.6,28.5,241.5,30.5,Deep,12.9,8.1,19.8,6.7,33.0,33.1,694.0,6.44,23.6,Wheat,Yes,32.43
115,BHAVNAGAR,Ghogha,21.6874043,72.2761717,8,2021,Silty,6.22,1.11,0.2,383.6,41.7,105.7,16.8,Deep,32.4,27.3,36.3,274.1,76.7,29.5,1002.5,3.49,75.1,Jowar,No,10.283168798801086
116,BOTAD,Ranpur,22.3598858,71.7169084,11,2023,Black Cotton,7.32,3.8,0.86,476.1,14.2,187.7,10.3,Shallow,24.3,17.3,29.4,7.4,35.9,37.2,1114.8,2.3,31.7,Wheat,Yes,25.66
117,SURAT,Palsana,21.0859408,72.978046,10,2023,Black Cotton,8.0,0.49,0.35,296.3,37.0,677.1,6.3,Shallow,24.7,20.2,28.4,37.0,41.4,22.6,810.0,2.0,30.3,Wheat,Yes,32.32
118,SABARKANTHA,Vijaynagar,23.9531558,73.2815255,1,2017,Silty,7.02,1.11,0.73,188.8,48.7,252.1,38.2,Deep,26.2,19.6,31.9,9.6,37.4,31.2,819.9,2.4,35.6,Bajra,Yes,11.26
119,PANCHMAHALS,KALOL,23.2212398,72.5187447,2,2016,Silty,7.18,1.64,1.43,276.4,36.3,162.9,39.6,Shallow,14.2,10.6,19.7,13.9,47.9,23.2,846.7,2.55,9.8,Chickpea,Yes,14.56
120,AHMADABAD,Viramgam,23.1224522,72.0483946,5,2016,Black Cotton,8.16,0.41,0.15,53.3,52.0,556.9,11.2,Shallow,37.8,31.1,39.9,15.2,46.9,5.7,1108.3,5.16,47.1,Bajra,No,14.115497151449842
121,ANAND,Anand,22.5586555,72.9627227,7,2020,Silty,6.97,0.91,0.61,274.7,39.3,429.9,2.3,Deep,31.4,25.3,34.8,582.7,95.0,17.4,221.3,0.72,100.0,Maize,Yes,25.87
122,VADODARA,Sinor,21.9111503,73.3384024,10,2014,Silty,7.37,2.74,1.33,338.0,59.9,218.6,20.0,Medium,27.7,21.4,31.4,62.4,50.0,28.0,670.8,6.39,40.8,Bajra,No,10.75591356085701
123,SABARKANTHA,Poshina,24.3731337,73.0324745,12,2018,Silty,6.97,0.77,1.26,187.7,9.9,280.9,34.0,Medium,24.2,21.5,28.5,6.5,31.7,27.8,798.0,5.07,37.0,Jowar,Yes,16.04
124,KACHCHH,Anjar,23.1194278,70.0363797,3,2016,Loam,6.6,3.95,1.62,493.7,12.9,610.6,9.8,Shallow,36.4,32.8,38.4,12.4,46.5,10.9,970.1,4.39,57.1,Bajra,No,13.29774773884873
125,TAPI,Vyara,21.1176744,73.3857702,9,2014,Clay,7.84,3.8,1.62,385.7,34.2,61.6,2.2,Deep,31.7,26.2,35.6,198.6,53.2,34.5,434.0,2.46,92.0,Sesame,No,4.739937036516136
126,BANASKANTHA,Vav,24.363947,71.5123139,4,2019,Loam,7.35,3.68,0.79,137.4,45.0,135.3,33.6,Deep,28.8,23.0,32.7,14.8,46.9,27.1,806.8,2.17,15.0,Jowar,Yes,10.78
127,JUNAGADH,Bhesan,21.5527226,70.7069913,4,2016,Black Cotton,7.69,0.09,0.82,77.5,33.6,454.8,32.1,Medium,30.6,28.0,33.2,25.8,36.6,12.1,486.9,4.49,23.3,Bajra,Yes,13.503885481461973
128,SURAT,Umarpada,21.4563995,73.4757224,4,2019,Loam,6.54,0.4,0.29,299.9,32.2,667.1,35.5,Shallow,30.2,26.4,37.1,15.5,40.8,9.2,408.2,2.12,27.0,Bajra,Yes,12.2407067569732
129,CHHOTA,UDEPUR,22.3148736,74.0141067,11,2016,Black Cotton,7.43,1.46,0.84,322.2,53.3,110.4,37.0,Shallow,16.6,11.7,22.0,1.8,38.6,36.8,407.5,2.65,52.6,Mustard,Yes,10.96
130,MAHESANA,Vadnagar,23.7853622,72.6332132,3,2021,Silty,6.72,1.47,0.15,351.7,51.1,682.7,7.6,Medium,34.5,28.3,38.1,2.2,43.8,32.4,796.7,4.82,69.0,Bajra,Yes,12.88
131,BHARUCH,Anklesvar,21.76338667452416,73.00471180351391,8,2017,Silty,7.14,2.58,0.35,418.4,54.1,448.4,2.5,Shallow,29.8,25.9,35.6,515.8,88.2,80.0,473.7,2.17,100.0,Castor,No,8.44631911084482
132,MORBI,Morvi,22.87621585614973,70.91882025454545,2,2019,Silty,7.44,0.12,0.79,50.29632820947875,35.2,586.8,36.0,Deep,24.0,20.0,28.3,16.3,48.1,80.0,1043.9,3.58,58.1,Jowar,Yes,15.49
133,VALSAD,Vapi,20.3735482,72.9084376,6,2014,Silty,7.2,3.86,0.6,275.3,43.6,79.8,9.1,Shallow,31.7,29.0,34.7,475.9,94.6,13.1,795.4,0.57,100.0,Castor,No,11.546479693975977
134,BOTAD,Barwala,22.1518623,71.8957058,11,2021,Black Cotton,8.0,0.58,0.95,279.3,7.7,658.0,38.1,Medium,22.4,15.5,25.3,19.4,34.0,28.4,816.1,3.51,66.2,Wheat,Yes,30.04
135,BHARUCH,Valia,21.5711115,73.1608821,8,2018,Loam,6.09,2.43,1.61,270.8,51.4,406.1,15.5,Deep,29.7,25.6,33.2,468.4,90.3,40.0,633.4,4.45,100.0,Castor,Yes,9.63
136,AMRELI,Lathi,21.724718,71.3899959,11,2020,Black Cotton,8.36,2.16,1.59,228.5,5.7,119.2,18.4,Shallow,15.8,12.3,19.2,13.6,48.1,29.4,523.6,5.7,9.8,Wheat,No,22.79908812686364
137,JUNAGADH,Junagadh,21.5220416,70.4582458,7,2022,Loam,7.13,3.2,1.28,355.7,7.6,298.0,19.9,Deep,30.2,23.5,35.3,231.2,70.5,34.1,1000.3,4.36,93.3,Urad (Black Gram),No,6.038453034843284
138,SURAT,Palsana,21.0859408,72.978046,11,2016,Loam,6.1,0.74,0.97,207.3,28.6,411.8,7.6,Deep,10.8,3.2,13.0,13.9,43.3,32.7,837.1,6.15,27.4,Wheat,Yes,21.39
139,DAHOD,Sanjeli,23.0583328,73.9710668,2,2022,Black Cotton,6.77,2.2,0.79,194.2,53.6,481.2,16.2,Medium,21.1,13.2,27.2,3.5,30.5,29.2,671.6,6.5,45.6,Wheat,Yes,31.68
140,CHHOTA,UDEPUR,22.3148736,74.0141067,5,2020,Black Cotton,7.82,0.15,0.98,392.1,33.3,380.7,22.9,Medium,29.4,21.7,32.2,21.7,42.9,6.1,301.3,5.24,59.6,Bajra,Yes,10.510967757198738
141,KHEDA,Mahudha,22.8201982,72.9386868,11,2020,Loam,6.84,0.66,0.88,185.9,9.8,85.3,36.2,Deep,23.8,19.4,28.1,1.4,36.5,19.2,361.7,2.02,52.1,Urad (Black Gram),No,5.668791716169428
142,ARAVALLI,Meghraj,23.5219981,73.5486403,11,2018,Sandy Loam,7.44,1.16,1.68,209.3,50.2,70.0,8.7,Shallow,17.3,14.4,24.1,2.5,43.8,37.7,1004.0,5.64,29.8,Maize,Yes,30.3
143,AHMADABAD,Viramgam,23.1224522,72.0483946,9,2022,Loam,6.48,3.01,1.64,191.6,27.7,469.9,24.0,Shallow,31.1,25.7,36.5,175.8,48.7,31.7,1102.7,3.86,82.1,Sesame,No,4.9800223190422415
144,SABARKANTHA,Vijaynagar,23.9531558,73.2815255,3,2019,Silty,7.26,0.45,1.15,453.1,22.5,342.9,28.5,Medium,29.2,26.2,36.0,17.4,38.0,33.2,917.9,5.11,26.5,Bajra,Yes,11.08
145,MORBI,Halvad,23.0182418,71.1833818,9,2021,Loam,6.06,2.45,1.53,433.6,12.7,400.1,13.3,Deep,25.6,20.1,27.8,119.3,50.0,25.9,1051.3,4.16,64.2,Sesame,Yes,4.45
146,SURAT,MAHUVA,21.0180294,73.1388718,3,2018,Silty,7.1,0.41,0.72,57.44494707159468,18.1,676.6,44.2,Deep,36.2,30.2,42.9,4.0,49.8,31.4,707.3,3.77,20.0,Bajra,Yes,11.3071581289699
147,SURENDRANAGAR,Chotila,22.4243903,71.1992399,7,2019,Silty,7.03,3.53,0.17,334.8,10.7,679.5,29.2,Medium,28.1,23.9,33.4,566.9,95.0,34.5,457.4,1.05,100.0,Maize,Yes,23.04
148,AMRELI,Lathi,21.724718,71.3899959,3,2022,Silty,6.03,0.35,1.19,129.4,15.3,285.4,32.8,Shallow,35.0,30.1,40.4,16.8,43.5,27.9,632.0,3.14,16.7,Jowar,No,11.241897050289952
149,MAHISAGAR,Virpur,23.1890874,73.480854,9,2016,Silty,7.42,2.28,0.13,368.2,41.4,234.2,5.7,Medium,29.6,26.7,33.7,375.2,79.2,32.6,654.4,2.67,90.9,Rice,Yes,27.89
150,ANAND,Khambhat,22.3166806,72.6243126,4,2014,Black Cotton,8.25,2.04,0.81,100.3,10.3,359.3,28.4,Shallow,36.7,29.3,42.0,25.0,43.3,5.6,1128.3,5.26,38.0,Bajra,No,12.808292999270336
151,SURENDRANAGAR,Dhrangadhra,22.9914292,71.4663753,6,2020,Black Cotton,8.07,3.64,1.52,300.8,28.4,215.4,34.9,Shallow,32.9,26.2,38.4,246.7,66.2,9.4,133.5,4.04,99.0,Jowar,Yes,15.59
152,KACHCHH,Rapar,23.570746,70.6450466,10,2020,Silty,7.46,3.97,0.78,125.7,35.4,412.4,9.7,Deep,26.5,20.1,32.0,42.2,51.3,28.2,939.3,4.02,58.9,Bajra,Yes,10.62
153,BHAVNAGAR,Jesar,21.3699105,71.6684114,3,2014,Silty,7.29,0.07,0.25,98.3,55.9,333.0,4.8,Shallow,35.2,29.3,39.2,11.0,36.8,39.1,299.1,5.82,18.6,Urad (Black Gram),No,5.475669704394852
154,AMRELI,Lathi,21.724718,71.3899959,9,2023,Black Cotton,7.74,2.48,1.25,199.1,41.0,684.2,5.7,Medium,27.6,21.2,32.2,499.2,81.3,8.4,270.7,3.65,100.0,Cotton,Yes,16.65
155,JUNAGADH,Vanthali,21.4772602,70.3321207,1,2023,Silty,6.06,2.05,1.05,266.5,23.7,126.1,24.1,Medium,22.8,17.4,29.6,17.5,47.1,31.6,1154.4,4.2,38.4,Wheat,Yes,23.79
156,RAJKOT,Jetpur,21.7543725,70.6189391,6,2017,Silty,7.03,2.09,0.12,421.1,18.7,110.5,31.0,Medium,32.9,29.3,39.4,154.8,64.4,29.0,1037.0,3.72,48.9,Moong (Green Gram),No,4.725610500112771
157,MAHESANA,Vadnagar,23.7853622,72.6332132,2,2016,Loam,7.49,2.72,1.23,318.5,47.0,402.0,3.8,Medium,15.3,11.7,20.2,7.4,34.4,32.3,731.9,3.95,55.2,Mustard,No,10.127870379551275
158,BHAVNAGAR,Bhavnagar,21.7718836,72.1416449,8,2016,Loam,7.13,1.87,1.27,54.38237379619533,16.6,427.7,16.0,Deep,27.2,23.1,34.0,484.6,82.1,20.3,405.8,3.34,100.0,Groundnut,Yes,17.04
159,SURENDRANAGAR,Muli,22.6217,71.4527,4,2018,Black Cotton,6.88,1.55,0.35,480.8,13.2,573.7,9.6,Medium,40.4,35.5,44.0,3.9,35.4,35.3,293.4,2.47,16.4,Bajra,Yes,12.19
160,RAJKOT,Jamkandorna,22.033325356894554,70.76527248505214,9,2019,Black Cotton,8.48,1.07,0.13,87.0,52.7,676.0,10.6,Deep,30.0,24.9,33.6,716.4,95.0,80.0,50.0,1.49,100.0,Maize,No,23.33553069519461
161,VALSAD,Vapi,20.3735482,72.9084376,2,2020,Loam,6.02,0.95,0.64,166.9,19.7,469.0,13.7,Medium,25.1,22.1,29.4,14.6,48.5,10.0,465.6,3.19,56.3,Jowar,Yes,11.237212952581007
162,BANASKANTHA,Lakhani,24.2310058240942,72.03957018269928,1,2014,Silty,7.18,3.98,0.28,320.5,9.6,655.5,18.8,Shallow,17.1,14.9,23.3,6.4,43.9,80.0,555.7,4.35,69.7,Potato,Yes,173.88
163,PATAN,Chanasma,23.7150529,72.1150247,8,2023,Black Cotton,7.9,3.52,0.84,330.7,34.4,640.8,22.7,Shallow,29.3,27.3,32.8,477.9,94.1,35.1,337.7,1.96,100.0,Castor,Yes,10.23
164,VALSAD,Pardi,20.5137936,72.9242196,1,2017,Black Cotton,6.7,1.68,1.05,215.5,14.0,529.1,18.8,Medium,13.1,7.4,19.1,3.9,44.3,15.1,864.1,4.64,23.3,Wheat,Yes,26.09
165,BHARUCH,Vagra,21.8447606,72.8448749,8,2023,Loam,6.53,0.65,1.75,55.73076451269024,58.5,233.4,7.4,Medium,26.9,23.0,30.6,379.9,84.0,40.5,500.6,4.06,100.0,Castor,No,8.3043330907103
166,BANASKANTHA,Suigam,24.1515492,71.3593406,5,2017,Sandy Loam,6.82,0.53,1.41,147.0,47.4,337.9,33.7,Shallow,37.8,33.5,40.8,4.4,49.7,38.0,398.5,5.62,54.3,Bajra,Yes,15.56
167,PATAN,Patan,23.8505032,72.1133403,2,2017,Loam,7.46,1.33,0.38,159.8,11.6,562.9,2.4,Shallow,22.7,19.2,28.6,11.0,41.1,29.4,566.0,6.79,56.6,Wheat,Yes,27.2
168,PATAN,Sankheshwar,23.79879317530675,71.89748336549079,9,2019,Black Cotton,7.92,3.23,0.85,120.7,42.9,282.8,7.8,Shallow,27.9,24.8,30.8,468.9,83.8,80.0,277.1,3.82,100.0,Castor,Yes,12.16
169,BANASKANTHA,Deesa,24.2594977,72.1803348,11,2014,Silty,6.71,0.78,0.13,432.7,47.7,205.2,33.0,Deep,22.9,20.0,28.7,14.3,37.1,19.8,548.8,2.41,50.7,Wheat,Yes,27.4
170,PORBANDAR,Ranavav,21.6986198,69.7268474,10,2014,Black Cotton,8.18,2.65,0.99,359.6,19.1,288.1,28.1,Shallow,30.1,25.3,36.3,11.6,43.9,17.7,950.5,6.39,60.8,Bajra,Yes,11.38
171,KACHCHH,Bhuj,23.2472446,69.668339,4,2015,Black Cotton,7.36,2.91,1.0,119.0,33.9,211.7,28.9,Shallow,35.0,29.0,39.9,18.2,45.9,20.0,339.8,5.87,44.4,Bajra,Yes,16.24
172,JUNAGADH,Junagadh,21.5220416,70.4582458,6,2022,Silty,6.82,2.55,1.5,182.0,18.2,404.7,18.1,Deep,27.2,20.8,31.2,753.5,95.0,25.9,365.0,3.2,100.0,Soybean,Yes,13.03
173,MORBI,Halvad,23.0182418,71.1833818,9,2018,Black Cotton,7.28,3.71,0.36,63.72106153116874,24.6,140.0,17.8,Deep,26.8,23.5,31.6,222.1,53.8,16.6,597.4,3.33,100.0,Jowar,Yes,11.35
174,JAMNAGAR,Lalpur,22.1915377,69.963963,2,2020,Loam,7.37,1.37,1.6,234.1,56.2,128.4,35.1,Deep,19.6,15.8,23.5,10.3,31.9,23.9,387.0,4.46,21.4,Wheat,No,20.082107937009756
175,BHAVNAGAR,Gariadhar,21.5385705,71.5792958,7,2017,Silty,7.25,0.63,0.67,253.7,46.0,406.3,13.3,Medium,32.3,27.4,37.1,311.6,74.2,12.2,679.4,4.12,83.3,Urad (Black Gram),Yes,10.22
176,KHEDA,Matar,22.7073839,72.6623162,6,2020,Silty,6.11,1.41,1.21,391.8,14.3,277.3,37.3,Medium,29.3,26.4,34.7,488.9,93.5,8.5,708.2,0.78,100.0,Castor,Yes,12.19
177,MAHESANA,Satlasana,24.0246132,72.7933287,1,2021,Sandy Loam,6.17,2.18,0.45,275.9,19.2,364.0,33.4,Shallow,20.1,16.6,24.7,10.9,32.3,12.6,906.2,3.31,37.4,Wheat,No,20.069970510078072
178,JUNAGADH,Keshod,21.3148629,70.2678937,1,2015,Silty,6.8,2.62,0.49,208.9,58.7,114.7,15.6,Deep,14.7,12.6,21.3,10.3,36.0,23.6,561.7,3.92,17.3,Wheat,Yes,26.88
179,BANASKANTHA,Suigam,24.1515492,71.3593406,11,2014,Sandy Loam,7.42,3.57,1.49,62.91356224596747,35.5,232.1,8.5,Medium,11.8,6.0,16.9,11.3,35.7,13.7,389.5,6.79,66.4,Wheat,Yes,31.61
180,VALSAD,Umbergaon,20.1537655,72.7905804,5,2016,Black Cotton,7.76,2.12,0.33,498.0,58.7,144.3,42.1,Shallow,36.9,29.6,40.5,9.7,45.5,32.3,1081.3,4.02,33.7,Urad (Black Gram),No,6.222285810832632
181,JUNAGADH,Manavadar,21.4979645,70.1406499,3,2015,Loam,6.67,3.94,1.15,314.6,38.7,437.6,11.9,Shallow,37.6,31.3,42.6,10.4,38.5,34.8,711.7,2.64,19.6,Bajra,Yes,13.498127511472468
182,NAVSARI,Jalalpore,20.9484948,72.897892,4,2017,Clay,6.7,3.82,0.85,320.0,42.8,613.4,40.2,Medium,28.9,23.2,32.5,11.3,46.0,26.4,743.3,6.32,58.4,Jowar,Yes,10.44
183,MAHESANA,Kheralu,23.8851474,72.6172316,12,2020,Loam,7.28,2.09,1.17,53.2,21.0,308.7,15.1,Medium,19.2,16.3,23.8,8.2,47.4,21.3,932.4,2.53,57.3,Wheat,Yes,29.47
184,AMRELI,Jafrabad,20.8665451,71.3648229,12,2023,Loam,7.19,0.41,0.65,334.8,44.1,156.6,33.5,Shallow,18.2,11.5,22.1,2.0,40.4,38.5,608.7,3.89,55.3,Wheat,Yes,31.46
185,MORBI,MALIYA,23.0931749,70.7599456,7,2014,Silty,6.49,3.09,0.86,324.4,11.5,135.5,10.7,Deep,25.1,19.5,31.1,529.0,92.8,12.7,612.0,1.62,100.0,Maize,Yes,31.4
186,DANGS,Subir,20.7587262,73.68735329999998,1,2017,Loam,6.05,2.63,0.16,431.3,41.7,594.7,14.8,Shallow,17.3,11.2,22.4,1.1,42.0,80.0,418.0,4.27,42.9,Wheat,Yes,29.69
187,RAJKOT,Gondal,21.9575096,70.8009896,9,2020,Loam,6.44,0.58,1.28,159.0,34.0,391.0,31.9,Deep,29.5,23.2,31.9,174.4,59.5,32.8,834.3,3.27,95.0,Urad (Black Gram),Yes,10.33
188,MAHESANA,Satlasana,24.0246132,72.7933287,8,2021,Loam,7.0,0.97,0.59,121.0,11.5,352.2,36.3,Deep,31.7,26.3,35.4,631.6,95.0,6.0,125.3,0.5,100.0,Castor,Yes,10.24
189,DANGS,Subir,20.7587262,73.68735329999998,10,2023,Loam,6.8,0.82,1.52,463.5,31.4,358.4,3.5,Shallow,28.9,22.2,32.6,61.5,44.4,80.0,1012.6,3.19,64.4,Bajra,Yes,15.01
190,VALSAD,Vapi,20.3735482,72.9084376,2,2019,Clay,6.86,0.17,1.77,324.5,51.3,421.1,18.8,Deep,21.9,18.3,27.4,1.8,31.9,36.3,602.1,6.14,25.0,Wheat,Yes,23.81
191,PATAN,Harij,23.6931596,71.9008666,1,2022,Silty,7.11,0.66,0.68,257.2,53.1,251.7,16.1,Shallow,26.2,21.4,31.8,15.6,45.8,23.7,246.1,6.58,52.8,Bajra,Yes,15.79
192,RAJKOT,Kotda,22.0277283,70.926358,1,2018,Black Cotton,7.93,2.57,0.46,124.3,20.8,396.0,35.2,Deep,15.5,10.4,20.6,2.0,34.3,17.4,551.6,2.7,51.2,Wheat,Yes,26.37
193,TAPI,Dolvan,20.902135,73.3331335,1,2016,Silty,7.15,0.25,0.75,70.5,26.6,508.0,40.3,Deep,22.4,16.1,28.5,14.4,44.9,24.3,1167.8,5.71,38.2,Wheat,Yes,32.3
194,MAHESANA,Unjha,23.7968484,72.3818955,8,2021,Loam,6.75,0.62,1.62,151.3,25.0,169.2,41.4,Medium,33.5,29.4,37.9,482.6,87.5,11.5,738.2,2.61,100.0,Castor,No,9.837881645877454
195,KHEDA,Thasra,22.7977449,73.2207334,8,2022,Silty,7.39,0.99,0.51,104.7,31.5,92.9,11.0,Deep,30.4,27.0,35.1,366.3,79.9,8.4,951.2,3.04,100.0,Castor,Yes,9.97
196,AHMADABAD,Detroj-Rampura,23.3291312,72.1639025,10,2015,Loam,7.45,2.41,1.49,183.9,40.5,90.0,11.4,Shallow,32.7,29.8,35.4,66.5,47.3,19.1,765.8,2.65,62.6,Bajra,Yes,11.39
197,SURENDRANAGAR,Muli,22.6217,71.4527,2,2019,Black Cotton,6.53,3.95,0.79,90.0,21.2,290.0,25.6,Shallow,21.0,18.8,24.4,0.0,38.6,26.0,844.0,5.56,31.4,Wheat,Yes,31.45
198,JUNAGADH,Malia,21.11454,70.3736575,7,2019,Loam,6.42,3.5,0.31,52.40772512863344,40.7,143.6,40.1,Deep,32.5,27.8,36.6,298.0,75.6,26.2,505.4,1.41,97.7,Jowar,Yes,10.56
199,ANAND,Petlad,22.4770467,72.8003365,12,2017,Black Cotton,7.1,3.71,1.08,53.14131359469695,7.1,364.1,17.8,Deep,21.0,13.1,27.9,6.7,46.2,21.8,321.0,6.42,12.1,Wheat,Yes,29.52
200,PANCHMAHALS,KALOL,23.2212398,72.5187447,10,2018,Loam,7.29,2.16,0.12,243.4,54.8,423.1,16.3,Medium,31.8,25.3,38.4,59.2,50.5,25.2,278.8,4.07,27.8,Bajra,Yes,10.43
201,SURAT,Madvi,21.21105087919355,73.02497339854838,2,2022,Silty,6.31,2.48,0.57,150.8,45.8,442.5,41.1,Deep,19.0,14.1,24.5,4.1,46.4,80.0,573.7,2.4,15.2,Potato,Yes,178.55
202,ARAVALLI,Bayad,23.2248593,73.2153042,12,2021,Black Cotton,7.38,2.33,1.53,55.5,19.5,582.7,4.3,Medium,15.5,11.2,20.2,7.3,44.8,22.3,384.2,6.31,7.2,Mustard,Yes,11.23
203,MAHISAGAR,Virpur,23.1890874,73.480854,11,2022,Silty,7.09,1.76,1.66,433.4,23.4,223.6,6.2,Deep,19.2,12.6,24.6,10.2,41.4,29.4,1188.5,3.52,7.7,Wheat,Yes,29.09
204,BHAVNAGAR,Vallabhipur,21.8885909,71.8781618,5,2018,Loam,6.55,2.5,0.2,309.2,54.2,190.9,27.8,Shallow,30.8,23.4,36.1,21.9,43.5,39.2,1090.2,5.37,25.8,Urad (Black Gram),Yes,9.16
205,KHEDA,Matar,22.7073839,72.6623162,5,2019,Loam,7.44,1.15,0.21,212.6,59.8,217.9,37.0,Shallow,34.5,29.5,37.4,13.4,34.2,32.4,450.8,5.15,67.0,Bajra,Yes,14.67
206,SURENDRANAGAR,Muli,22.6217,71.4527,3,2021,Black Cotton,7.55,3.73,1.23,155.2,43.5,638.0,26.7,Deep,39.1,32.2,44.7,19.1,33.3,13.2,605.7,5.35,59.5,Bajra,Yes,12.78
207,TAPI,Uchchhal,21.2952173,73.820417,6,2015,Black Cotton,8.23,1.39,1.53,387.4,20.9,182.0,25.8,Medium,28.6,23.7,34.0,380.5,85.8,21.1,239.7,0.5,82.7,Cotton,No,11.24827130346316
208,VADODARA,Karajan,22.30309615105263,73.2793426991228,1,2021,Loam,6.59,1.38,1.33,220.6,16.6,475.0,24.5,Deep,20.3,13.9,22.7,23.4,42.1,80.0,1100.1,4.97,25.5,Jowar,Yes,15.11
209,DAHOD,Limkheda,22.834878,73.9846526,3,2023,Black Cotton,7.15,3.28,0.29,309.6,38.9,91.0,10.7,Medium,42.3,36.8,49.2,21.2,34.9,35.1,992.9,5.71,47.8,Bajra,Yes,13.94
210,BHARUCH,Jambusar,22.0514367,72.8069758,4,2021,Black Cotton,7.15,0.44,1.54,317.8,47.8,60.2,22.9,Shallow,40.7,34.5,44.1,0.2,45.9,22.2,370.4,2.72,22.7,Bajra,No,13.719038322662577
211,BHARUCH,Anklesvar,21.76338667452416,73.00471180351391,2,2023,Black Cotton,8.14,1.24,0.81,292.1,15.6,691.3,44.0,Deep,23.5,17.5,29.4,9.2,36.4,80.0,1002.2,5.38,69.8,Wheat,Yes,23.15
212,RAJKOT,Paddhari,22.4297959,70.6057564,5,2020,Silty,7.47,3.57,0.87,79.1,7.9,399.3,8.8,Shallow,29.0,25.0,34.0,16.1,35.6,28.8,551.4,5.81,29.4,Bajra,No,10.387741748490336
213,JUNAGADH,Vanthali,21.4772602,70.3321207,1,2021,Silty,6.28,3.72,0.87,212.0,12.5,517.9,29.2,Medium,15.1,8.0,17.8,4.2,39.6,11.1,574.3,6.41,45.1,Wheat,Yes,26.83
214,KHEDA,Galteshwar,22.8686619,73.3084119,7,2015,Black Cotton,7.07,3.98,1.11,423.4,20.4,524.5,33.7,Shallow,27.2,19.7,33.9,185.1,66.5,20.3,199.5,6.03,89.7,Jowar,Yes,11.635629022981549
215,PORBANDAR,Porbandar,21.6409,69.611,4,2021,Loam,7.29,0.1,1.34,476.5,12.3,242.3,29.8,Shallow,37.5,32.0,42.4,0.4,49.6,21.3,381.5,5.52,17.1,Bajra,Yes,14.65
216,JUNAGADH,Mangrol,21.1241507,70.1199203,9,2019,Loam,6.45,3.02,1.29,317.9,36.6,184.6,31.4,Deep,29.6,22.3,35.0,504.1,82.6,17.8,586.1,1.31,100.0,Castor,Yes,9.34
217,JAMNAGAR,Jamjodhpur,21.9329709,70.0297614,11,2015,Silty,7.35,3.02,1.58,360.3,46.4,544.6,15.8,Medium,18.3,13.3,22.6,8.1,47.4,21.5,751.3,6.09,65.1,Wheat,Yes,23.55
218,AMRELI,Amreli,21.6009239,71.2168014,8,2017,Loam,6.48,3.6,0.59,479.6,11.0,229.4,32.0,Medium,28.1,22.0,32.2,229.0,71.5,21.8,534.6,4.54,52.2,Urad (Black Gram),Yes,9.37
219,AMRELI,Savar,21.3447388,71.3138041,6,2023,Black Cotton,7.57,1.34,1.11,357.5,51.3,339.4,15.1,Shallow,28.3,24.6,32.2,662.9,95.0,10.5,188.7,3.47,100.0,Soybean,Yes,15.85
220,PATAN,Santalpur,23.7598357,71.1822023,3,2016,Loam,6.24,3.98,1.08,237.2,25.3,183.4,32.4,Deep,32.7,28.9,35.5,8.2,49.2,19.4,720.4,2.69,36.4,Urad (Black Gram),Yes,6.53
221,MORBI,MALIYA,23.0931749,70.7599456,5,2021,Black Cotton,7.63,3.21,1.34,463.5,23.6,123.0,22.6,Shallow,36.0,31.3,42.2,3.6,32.2,7.1,857.5,4.9,20.2,Bajra,Yes,11.66
222,KACHCHH,Anjar,23.1194278,70.0363797,9,2015,Silty,6.12,1.31,1.13,473.4,55.0,284.7,8.4,Medium,28.4,21.2,35.3,297.3,61.5,30.5,523.4,5.47,100.0,Rice,No,20.51658235086709
223,TAPI,Nizar,21.476998,74.1958106,10,2023,Clay,7.03,1.25,1.78,276.9,23.4,656.5,27.4,Medium,27.5,21.2,32.3,15.6,46.7,10.6,418.9,3.83,44.1,Jowar,Yes,13.48
224,BHAVNAGAR,Mahuva,21.0914409,71.7621979,1,2014,Loam,6.34,3.83,1.52,252.1,41.0,630.2,19.9,Medium,20.2,12.4,24.7,12.8,43.3,18.0,700.1,4.12,24.3,Wheat,Yes,21.08
225,SURENDRANAGAR,Dhrangadhra,22.9914292,71.4663753,3,2018,Black Cotton,7.32,1.31,1.59,93.7,14.0,227.2,20.0,Medium,33.3,27.5,36.3,1.4,45.4,26.3,408.1,3.6,25.8,Bajra,No,13.47638810619594
226,SABARKANTHA,Prantij,23.4372086,72.8518061,3,2019,Loam,6.71,1.16,1.42,223.6,55.6,156.0,11.4,Deep,30.3,25.1,36.5,6.6,41.3,24.9,965.2,2.54,36.3,Bajra,Yes,13.612907506262191
227,BHAVNAGAR,Sihor,21.720494,71.9605587,10,2021,Black Cotton,7.94,1.4,1.31,64.7703568697472,49.8,194.5,38.8,Shallow,25.0,18.4,29.1,44.8,36.7,6.1,687.6,3.94,26.7,Wheat,Yes,22.89
228,PORBANDAR,Kutiyana,21.6228345,69.9852088,11,2018,Loam,7.35,3.14,1.66,126.5,54.6,170.1,17.1,Shallow,22.2,15.1,26.0,2.6,45.9,26.5,728.4,2.33,58.8,Jowar,Yes,14.134047426727903
229,KACHCHH,Gandhidham,23.0718743,70.131715,12,2014,Sandy,6.37,3.69,1.55,253.1,43.4,170.3,31.0,Shallow,17.8,15.1,20.9,3.3,50.0,9.4,353.2,2.66,55.2,Wheat,Yes,24.41
230,JUNAGADH,Keshod,21.3148629,70.2678937,12,2023,Silty,7.04,3.37,0.48,221.4,59.2,328.2,38.8,Medium,16.6,12.2,22.0,14.6,41.9,28.7,356.0,3.9,53.1,Wheat,Yes,25.59
231,VADODARA,Dabhoi,22.1336175,73.4201004,10,2017,Silty,6.4,3.36,1.33,160.9,44.2,428.2,13.7,Deep,25.5,20.4,32.4,66.7,39.6,21.6,332.7,4.12,33.3,Bajra,Yes,13.76
232,DAHOD,Garbada,22.684669,74.3132146,7,2016,Black Cotton,7.67,0.65,1.16,75.3,9.2,538.5,35.0,Medium,31.0,23.8,34.7,188.8,59.8,39.2,185.6,3.21,100.0,Jowar,Yes,12.22
233,BHAVNAGAR,Mahuva,21.0914409,71.7621979,12,2018,Loam,7.07,0.58,1.32,259.1,11.0,488.8,30.4,Deep,19.6,16.0,21.9,9.9,42.8,18.6,887.7,5.78,25.5,Wheat,Yes,27.07
234,PATAN,Chanasma,23.7150529,72.1150247,7,2019,Loam,6.87,3.97,0.8,56.5,18.4,202.5,15.4,Shallow,26.0,22.0,28.1,512.0,90.4,35.6,533.6,3.95,100.0,Cotton,Yes,20.83
235,SURENDRANAGAR,Wadhwan,22.7028011,71.6723933,2,2021,Black Cotton,7.66,1.38,0.95,389.5,23.7,449.6,17.6,Medium,22.2,18.9,28.5,4.4,35.7,15.7,792.6,6.0,46.5,Wheat,Yes,21.64
236,JUNAGADH,Visavadar,21.3417058,70.7534299,8,2022,Silty,6.17,3.19,1.21,171.9,49.2,331.4,25.2,Shallow,26.5,19.2,31.2,343.3,76.9,23.2,255.6,2.78,100.0,Rice,Yes,29.48
237,SABARKANTHA,Poshina,24.3731337,73.0324745,10,2020,Silty,7.02,2.11,0.72,99.4,13.3,495.4,14.9,Medium,30.5,26.9,36.7,38.1,39.6,11.2,883.5,2.99,28.1,Bajra,Yes,15.64
238,NARMADA,Nandod,21.8429212,73.4495407,11,2020,Loam,6.15,1.13,0.15,401.1,20.3,408.0,29.7,Shallow,17.7,12.1,20.1,11.9,48.5,37.2,630.7,3.76,50.1,Wheat,Yes,20.9
239,NAVSARI,Khergam,20.6313585,73.0951202,9,2015,Black Cotton,8.15,3.8,1.68,148.3,53.7,204.7,7.3,Medium,28.9,24.4,32.1,243.2,57.2,11.7,1049.8,2.98,70.2,Moong (Green Gram),No,5.079179408675443
240,ANAND,Anklav,22.3775417,73.0021216,5,2017,Loam,6.66,2.88,1.5,54.185427564689896,58.2,443.8,38.2,Deep,28.3,24.0,31.6,23.9,45.2,30.1,1096.0,5.31,44.5,Sesame,No,5.020865414084774
241,BHAVNAGAR,Umrala,21.8437449,71.8049299,2,2018,Loam,6.45,3.44,0.37,236.3,22.4,578.0,29.7,Shallow,13.1,5.5,18.8,5.5,37.2,20.1,1119.9,2.47,16.5,Wheat,Yes,31.51
242,RAJKOT,Gondal,21.9575096,70.8009896,1,2014,Black Cotton,7.55,2.54,1.44,94.0,27.0,458.4,15.5,Shallow,14.7,11.9,19.9,2.3,42.1,19.5,1141.3,4.25,62.2,Wheat,Yes,21.24
243,DEVBHUMI,DWARKA,22.2424747,68.9671448,3,2019,Silty,7.09,3.78,1.6,135.5,57.1,650.0,29.8,Deep,30.0,27.7,36.3,6.5,43.0,26.2,388.5,6.76,17.4,Jowar,Yes,12.8
244,NAVSARI,Vansada,20.814335692307694,73.0001816016317,2,2021,Loam,7.09,0.8,1.57,397.6,20.8,371.2,7.6,Shallow,25.4,20.9,29.5,14.0,34.3,80.0,491.7,5.02,66.8,Jowar,Yes,12.25
245,DAHOD,Singvad,22.9618608,73.9617848,11,2020,Loam,7.38,2.85,1.35,150.4,10.2,88.2,16.3,Shallow,16.4,10.1,22.4,7.9,47.0,6.0,725.4,3.86,70.1,Wheat,Yes,22.1
246,TAPI,Nizar,21.476998,74.1958106,6,2021,Silty,6.03,1.3,1.0,96.6,11.4,78.7,7.5,Medium,31.3,24.7,36.4,394.9,74.8,16.8,900.6,1.61,100.0,Rice,Yes,17.55
247,SURENDRANAGAR,Lakhtar,22.8724876,71.7763542,1,2016,Sandy,6.09,1.91,0.38,249.6,11.4,631.9,23.3,Medium,22.0,14.8,28.2,6.3,33.1,8.6,1071.6,2.87,17.2,Wheat,Yes,23.22
248,VALSAD,Valsad,20.6067767,72.9272881,10,2022,Loam,6.83,0.35,1.41,348.1,53.8,66.9,31.3,Deep,28.2,26.0,31.8,18.6,41.1,30.4,696.6,5.05,26.2,Jowar,Yes,12.69
249,KHEDA,Kheda,22.7516133,72.6857205,3,2023,Loam,7.49,3.22,0.58,405.1,45.9,405.7,27.9,Shallow,29.4,22.3,31.8,12.3,34.5,32.8,514.5,5.7,50.0,Urad (Black Gram),Yes,8.66
250,DAHOD,Devgadbaria,22.87978639169436,74.10500860548173,6,2016,Black Cotton,7.01,1.5,0.44,239.4,26.3,224.5,27.8,Shallow,31.7,29.5,35.8,723.9,95.0,80.0,101.1,1.81,100.0,Soybean,Yes,15.9
251,KACHCHH,Anjar,23.1194278,70.0363797,5,2021,Sandy,6.47,2.75,0.61,146.9,28.5,419.5,25.7,Shallow,35.3,28.4,40.9,14.5,38.6,25.5,973.0,2.01,56.0,Bajra,Yes,16.11
252,VALSAD,Dharampur,20.5360672,73.1740929,10,2019,Black Cotton,6.96,2.7,1.16,154.6,58.2,616.4,10.0,Shallow,31.3,29.2,35.5,11.2,39.0,6.1,867.4,4.24,33.6,Bajra,Yes,14.17
253,SURAT,Chorasi,21.1535968,72.6887381,5,2020,Loam,6.7,0.1,0.29,56.952162927773145,58.4,608.4,11.0,Deep,30.3,27.8,35.0,4.3,45.8,10.7,648.6,2.56,64.5,Bajra,No,12.32408244422308
254,SURENDRANAGAR,Dhrangadhra,22.9914292,71.4663753,10,2018,Silty,6.67,0.08,1.17,365.2,58.9,601.6,33.7,Deep,32.3,26.0,36.9,44.0,53.1,37.0,1052.2,2.94,17.7,Bajra,Yes,12.87
255,JAMNAGAR,Jodiya,22.6925104,70.3054102,8,2015,Black Cotton,8.5,1.42,1.29,66.99492796496972,20.8,174.9,16.8,Shallow,28.4,22.1,34.7,430.1,82.4,36.0,721.8,1.8,100.0,Castor,No,8.511191404144288
256,SURAT,Umarpada,21.4563995,73.4757224,5,2017,Black Cotton,7.9,2.68,0.32,123.8,38.3,115.6,19.9,Medium,32.4,28.3,38.8,5.7,33.7,34.7,1096.9,2.13,10.3,Bajra,No,13.720790808306464
257,JAMNAGAR,Dhrol,22.5675674,70.4164394,1,2019,Black Cotton,6.78,0.65,1.27,272.2,41.8,509.2,41.8,Medium,24.1,18.4,30.0,17.0,48.9,8.7,775.9,4.46,19.3,Wheat,Yes,29.1
258,AMRELI,Amreli,21.6009239,71.2168014,12,2021,Loam,6.62,1.49,1.49,87.8,16.1,680.3,35.1,Shallow,23.3,19.1,25.7,4.2,45.5,17.9,879.6,2.74,54.8,Jowar,Yes,15.53
259,KHEDA,Thasra,22.7977449,73.2207334,11,2022,Silty,7.21,1.8,1.41,367.3,33.5,95.2,16.5,Medium,13.5,7.7,18.8,12.6,49.3,7.7,843.7,5.51,50.4,Wheat,Yes,27.37
260,DAHOD,Singvad,22.9618608,73.9617848,6,2019,Loam,7.14,3.61,1.14,99.0,27.2,468.5,40.2,Deep,29.1,24.7,35.0,507.4,84.7,16.3,50.0,1.13,100.0,Castor,Yes,9.03
261,JUNAGADH,Bhesan,21.5527226,70.7069913,6,2022,Black Cotton,6.77,0.16,1.45,308.5,18.3,553.2,33.2,Deep,25.1,22.8,28.9,165.4,59.6,9.5,450.4,4.85,67.5,Cumin,No,4.024194004276197
262,KACHCHH,Nakhatrana,23.3495267,69.2653851,10,2022,Loam,6.62,1.17,1.43,366.0,42.0,514.3,24.3,Shallow,27.3,24.4,31.6,14.7,40.0,19.6,330.3,4.05,16.4,Jowar,No,11.103818071397123
263,BHAVNAGAR,Gariadhar,21.5385705,71.5792958,10,2018,Silty,7.46,3.99,1.27,475.5,45.2,321.0,9.0,Deep,29.1,26.4,35.4,14.3,35.7,21.9,952.0,6.65,31.9,Bajra,Yes,14.18
264,MORBI,MALIYA,23.0931749,70.7599456,2,2016,Silty,6.48,1.53,0.6,68.49972280275436,12.9,559.5,20.1,Medium,15.1,11.0,17.7,19.0,49.3,19.8,784.9,4.74,67.3,Wheat,Yes,22.22
265,ANAND,Sojitra,22.5391166,72.7192782,8,2021,Black Cotton,6.94,3.47,0.65,405.9,41.5,316.3,12.0,Medium,25.5,23.0,28.9,288.8,62.2,6.4,704.2,4.42,82.8,Castor,Yes,12.34
266,BHAVNAGAR,Mahuva,21.0914409,71.7621979,9,2023,Loam,7.26,2.04,0.13,339.4,34.3,675.5,13.8,Shallow,30.8,25.2,36.8,275.4,65.6,6.9,931.2,0.74,88.5,Jowar,Yes,15.7
267,KHEDA,Thasra,22.7977449,73.2207334,5,2016,Loam,6.08,3.08,0.36,477.5,42.3,88.3,43.3,Shallow,29.4,25.5,33.5,0.6,37.6,34.6,364.6,3.01,54.0,Jowar,Yes,13.97
268,VADODARA,Dabhoi,22.1336175,73.4201004,9,2021,Silty,6.66,0.16,1.18,459.5,6.0,410.1,27.2,Shallow,30.0,27.5,34.0,243.1,67.0,12.8,1048.0,2.65,100.0,Moong (Green Gram),No,4.561297301194512
269,SURENDRANAGAR,Sayla,22.5494312,71.4820838,10,2021,Silty,7.48,0.71,0.2,463.3,20.0,213.1,31.2,Medium,26.4,21.2,29.2,71.9,38.6,8.4,877.6,5.79,66.5,Cumin,No,4.235238291090096
270,PATAN,Sami,23.6841533,71.7781681,11,2019,Silty,7.31,2.85,0.56,341.3,22.7,186.9,43.2,Medium,23.2,15.8,27.6,0.3,43.5,19.8,1100.3,5.52,54.6,Jowar,Yes,15.44
271,SURAT,Umarpada,21.4563995,73.4757224,11,2021,Loam,6.63,3.26,1.51,198.2,14.7,549.2,32.0,Shallow,18.7,12.1,24.4,1.7,43.8,30.5,431.1,6.07,46.0,Onion,Yes,244.68
272,BHAVNAGAR,Bhavnagar,21.7718836,72.1416449,4,2023,Loam,6.13,3.29,0.77,438.9,36.3,371.1,25.7,Deep,38.4,31.9,43.3,20.3,34.6,38.1,1052.6,6.31,56.4,Urad (Black Gram),Yes,9.78
273,PATAN,Sankheshwar,23.79879317530675,71.89748336549079,8,2022,Loam,7.38,2.58,1.7,54.4,56.6,331.2,44.8,Medium,29.1,22.8,31.3,237.9,54.7,80.0,636.8,2.39,78.1,Sesame,No,3.730156670632213
274,JUNAGADH,Mangrol,21.1241507,70.1199203,4,2015,Loam,6.03,1.28,1.16,75.5,31.4,575.2,27.5,Deep,39.8,32.8,46.6,24.6,48.9,23.2,462.6,2.24,48.9,Bajra,Yes,15.76
275,VADODARA,Padra,22.2412214,73.0855259,6,2020,Black Cotton,7.25,0.55,1.66,237.7,21.6,457.0,4.8,Deep,25.7,21.2,30.8,147.3,62.0,33.2,769.2,3.53,64.6,Cumin,No,3.856881309163925
276,KHEDA,Mahudha,22.8201982,72.9386868,6,2022,Black Cotton,7.05,0.46,1.11,61.7,48.4,175.8,26.6,Deep,27.5,24.7,30.4,342.1,65.1,10.1,634.2,2.86,100.0,Castor,No,8.967708957478676
277,ANAND,Petlad,22.4770467,72.8003365,6,2018,Loam,7.16,2.65,0.35,141.6,50.1,413.6,4.3,Medium,25.7,19.7,29.4,234.2,67.3,39.9,702.7,2.49,89.4,Jowar,Yes,14.47
278,SABARKANTHA,Idar,23.8362255,73.0114616,8,2014,Loam,6.95,2.57,1.28,249.3,16.7,362.5,35.0,Medium,27.0,24.9,29.0,460.5,83.2,25.0,155.0,1.9,100.0,Castor,Yes,13.27
279,VADODARA,Savli,22.562511,73.2230996,12,2018,Loam,6.59,2.24,0.4,61.33787367182941,51.4,641.9,2.9,Deep,21.7,17.0,24.8,2.7,37.7,18.7,411.4,4.62,57.5,Wheat,Yes,26.55
280,KHEDA,Kapadvanj,23.0232402,73.0727531,4,2017,Black Cotton,6.71,1.53,1.12,489.2,18.5,80.0,28.5,Shallow,32.9,29.2,38.0,17.5,34.3,23.4,796.1,4.35,55.8,Bajra,Yes,15.51
281,AMRELI,Khambha,21.1410665,71.2537125,6,2022,Silty,7.16,0.76,1.31,277.0,31.6,671.2,22.4,Deep,33.8,30.6,36.9,336.4,80.9,19.1,372.5,4.76,100.0,Rice,Yes,18.48
282,SURENDRANAGAR,Dhrangadhra,22.9914292,71.4663753,4,2019,Black Cotton,6.62,2.07,0.67,242.0,28.8,288.9,23.4,Medium,30.1,27.6,33.9,9.2,47.8,23.2,856.9,5.88,67.1,Bajra,No,12.425949474457392
283,PATAN,Radhanpur,23.8472862,71.5858439,12,2018,Black Cotton,8.21,0.8,1.13,94.8,52.0,515.5,25.4,Medium,15.3,10.9,19.3,0.2,41.6,28.3,698.3,4.56,54.5,Wheat,No,20.83192515152252
284,BANASKANTHA,Suigam,24.1515492,71.3593406,8,2022,Silty,7.32,1.4,0.25,427.5,28.6,662.3,20.0,Medium,29.2,21.5,31.8,325.2,62.7,33.6,880.0,2.07,97.3,Rice,Yes,17.09
285,ANAND,Umreth,22.6990518,73.115045,3,2014,Loam,6.94,3.98,1.07,405.6,55.3,423.0,18.8,Medium,34.4,29.0,36.9,5.1,39.5,36.9,336.0,2.49,42.0,Bajra,Yes,12.42
286,SABARKANTHA,Vijaynagar,23.9531558,73.2815255,4,2018,Loam,6.43,2.12,0.87,203.3,5.6,262.4,41.1,Medium,29.6,21.9,31.9,3.9,47.7,10.2,443.4,4.14,51.9,Jowar,Yes,11.53
287,SABARKANTHA,Khedbrahma,24.0310837,73.0484016,4,2018,Loam,7.15,1.81,1.5,314.3,18.6,263.8,26.5,Medium,36.7,32.0,43.1,12.6,45.3,30.5,526.3,5.01,60.2,Bajra,Yes,13.23
288,KACHCHH,Mundra,22.8393153,69.7249477,12,2016,Black Cotton,7.37,2.81,0.17,446.2,13.7,623.7,25.1,Deep,22.6,14.6,27.1,19.8,43.0,39.9,312.8,2.43,58.8,Wheat,Yes,25.39
289,JUNAGADH,Mendarda,21.3232985,70.4425757,7,2021,Silty,7.49,3.43,0.77,72.8610634572346,11.3,646.1,16.1,Deep,28.2,23.6,33.8,309.5,70.4,14.9,248.6,4.64,100.0,Rice,Yes,27.75
290,DAHOD,Limkheda,22.834878,73.9846526,3,2018,Silty,6.65,0.91,0.16,347.3,16.9,502.9,38.0,Deep,38.4,36.1,41.9,18.4,31.9,32.8,969.6,6.55,33.0,Urad (Black Gram),No,6.321627332826665
291,KACHCHH,Mundra,22.8393153,69.7249477,4,2015,Sandy,6.74,3.33,0.39,108.5,27.9,120.0,16.1,Deep,37.1,33.7,41.2,21.9,34.3,16.4,253.3,5.16,10.2,Bajra,Yes,11.53
292,MAHESANA,Mahesana,23.6015557,72.3867981,7,2017,Silty,6.77,2.02,1.78,364.9,48.5,649.4,26.5,Medium,29.2,21.4,34.6,708.5,95.0,17.1,499.3,2.88,100.0,Soybean,Yes,12.02
293,BANASKANTHA,Bhabhar,24.0650833,71.6155279,9,2017,Silty,6.95,0.1,0.14,386.7,11.8,203.7,20.4,Shallow,26.1,22.9,28.9,403.3,71.1,37.6,616.5,4.71,100.0,Castor,Yes,10.22
294,SURAT,Chorasi,21.1535968,72.6887381,1,2018,Loam,7.14,1.36,0.51,283.5,54.9,482.3,12.7,Deep,15.0,9.2,17.9,13.9,32.7,22.7,1149.0,2.19,72.3,Wheat,Yes,24.49
295,PANCHMAHALS,Godhra,22.829248945454545,73.03712348181818,2,2022,Silty,7.33,1.28,1.33,145.1,14.7,211.8,14.3,Medium,14.9,10.7,21.7,27.0,40.3,80.0,638.1,4.92,38.6,Chickpea,Yes,14.49
296,NARMADA,Nandod,21.8429212,73.4495407,10,2018,Black Cotton,6.98,2.92,0.54,247.9,29.9,293.8,28.1,Shallow,28.5,21.3,30.5,23.0,46.9,18.8,622.8,3.96,35.3,Urad (Black Gram),No,4.762162474918781
297,MORBI,Morvi,22.87621585614973,70.91882025454545,7,2015,Black Cotton,7.33,3.06,1.73,392.5,46.3,276.6,32.5,Deep,29.3,25.8,35.0,680.5,95.0,80.0,509.2,1.98,100.0,Soybean,Yes,13.64
298,PANCHMAHALS,KALOL,23.2212398,72.5187447,1,2016,Loam,6.77,2.6,1.66,216.9,37.2,635.6,24.3,Shallow,13.7,8.5,18.2,14.4,49.2,26.0,940.0,5.69,68.0,Chickpea,Yes,10.65
299,BHARUCH,Anklesvar,21.76338667452416,73.00471180351391,12,2017,Silty,7.31,0.08,0.39,261.1,10.3,552.9,20.0,Medium,22.6,19.4,28.1,14.6,35.1,80.0,670.8,6.0,20.0,Wheat,Yes,22.62
300,SURENDRANAGAR,Thangadh,22.5743355,71.2000239,2,2023,Black Cotton,6.61,1.21,0.74,160.1,23.8,430.7,22.5,Deep,10.8,4.1,16.1,12.6,32.1,12.6,995.9,3.82,41.3,Mustard,Yes,11.53
301,RAJKOT,Upleta,21.7466811,70.2821426,6,2019,Loam,7.09,2.68,0.74,56.9,24.6,264.7,6.3,Medium,26.9,24.2,29.0,689.8,95.0,38.3,619.0,0.5,100.0,Rice,No,21.034048372164964
302,BHARUCH,Vagra,21.8447606,72.8448749,1,2019,Black Cotton,6.54,1.81,1.13,218.1,38.7,102.9,20.4,Medium,23.3,20.1,26.8,19.8,34.8,23.8,783.4,6.18,41.8,Wheat,Yes,30.42
303,KACHCHH,LAKHPAT,23.8268882,68.7751578,8,2016,Sandy,6.76,2.19,0.51,110.1,56.9,504.9,6.5,Deep,32.8,26.5,36.2,119.5,55.3,38.5,827.3,4.73,88.9,Bajra,Yes,13.09
304,SURAT,Chorasi,21.1535968,72.6887381,2,2023,Black Cotton,6.6,3.65,1.36,370.8,41.0,560.3,43.5,Medium,16.4,10.0,18.8,11.2,49.9,31.6,354.7,3.78,62.7,Wheat,Yes,22.64
305,AMRELI,Lathi,21.724718,71.3899959,6,2020,Silty,6.79,3.74,0.31,342.0,37.5,119.3,2.4,Medium,32.4,29.5,37.8,252.6,60.9,31.4,930.4,4.88,57.8,Jowar,Yes,11.19
306,SURENDRANAGAR,Chotila,22.4243903,71.1992399,8,2017,Silty,7.18,1.54,1.77,186.6,50.5,186.9,33.5,Shallow,26.4,22.0,30.8,561.3,95.0,28.3,775.4,4.15,100.0,Soybean,Yes,10.97
307,GANDHINAGAR,Kalol,23.2452165,72.4966223,5,2018,Black Cotton,8.45,2.82,1.03,75.7,22.8,564.3,39.2,Shallow,38.9,32.7,41.6,21.3,38.0,10.6,446.6,5.63,57.1,Bajra,No,12.257396052666722
308,BHAVNAGAR,Talaja,21.3545788,72.0368814,11,2020,Loam,7.07,0.43,1.76,114.4,7.9,687.2,30.0,Deep,14.8,10.4,17.4,8.4,36.9,26.3,409.7,5.69,57.1,Wheat,Yes,30.24
309,PANCHMAHALS,Shehera,22.829248945454545,73.03712348181818,6,2021,Loam,6.45,0.38,0.93,344.3,33.0,65.0,26.6,Deep,30.3,22.3,34.2,433.1,87.4,80.0,152.4,1.46,100.0,Castor,Yes,10.63
310,SURENDRANAGAR,Chuda,22.4815114,71.6881728,8,2022,Loam,7.16,2.36,1.31,401.3,11.8,539.4,43.5,Shallow,29.6,26.9,35.6,172.6,49.8,12.6,316.8,3.95,94.9,Sesame,Yes,5.92
311,PANCHMAHALS,Halol,22.5025899,73.4691058,4,2014,Silty,6.53,3.79,1.64,167.9,34.4,140.9,23.1,Medium,41.7,39.1,44.7,11.7,47.6,14.0,422.8,3.44,61.5,Bajra,Yes,15.95
312,PATAN,Santalpur,23.7598357,71.1822023,9,2015,Silty,6.33,2.62,0.38,244.4,57.0,489.7,42.4,Shallow,24.1,20.9,29.6,434.1,80.9,28.2,812.4,2.85,100.0,Rice,Yes,33.21239671537533
313,DAHOD,Singvad,22.9618608,73.9617848,9,2015,Loam,7.25,1.66,0.66,71.8,55.0,555.7,8.3,Shallow,26.6,19.9,33.4,276.4,60.1,24.2,943.5,3.56,100.0,Jowar,Yes,15.12
314,MAHESANA,Becharaji,23.5443586,72.0851152,3,2014,Silty,7.0,1.59,0.69,378.4,58.2,395.6,27.6,Medium,29.7,26.9,32.5,9.6,38.5,31.2,295.4,5.58,70.3,Bajra,Yes,13.81
315,KHEDA,Kathlal,22.8985648,72.9908519,9,2021,Silty,6.38,1.74,1.7,444.3,49.8,248.4,38.9,Medium,28.8,21.1,34.4,236.4,56.9,7.6,838.0,3.59,84.3,Jowar,Yes,13.45
316,ANAND,Anklav,22.3775417,73.0021216,11,2022,Black Cotton,8.34,2.81,0.79,319.7,55.1,534.8,32.7,Deep,16.3,8.3,22.9,11.0,50.0,29.5,284.7,4.19,18.2,Wheat,No,21.240128507050823
317,GANDHINAGAR,Kalol,23.2452165,72.4966223,1,2019,Silty,7.09,0.72,1.75,188.8,42.3,590.6,38.6,Shallow,20.3,15.9,25.5,4.4,48.9,38.0,1159.0,4.56,64.0,Sugarcane,Yes,614.7
318,RAJKOT,Jamkandorna,22.033325356894554,70.76527248505214,2,2019,Loam,6.62,2.9,0.78,69.60559724811982,28.7,178.4,24.8,Shallow,24.0,19.2,27.3,8.6,38.3,80.0,1093.3,4.64,24.2,Jowar,No,14.293416044758544
319,SURAT,Madvi,21.21105087919355,73.02497339854838,2,2017,Clay,6.64,0.58,0.82,185.7,6.7,483.0,42.8,Deep,13.7,10.9,19.1,24.5,47.5,80.0,617.6,5.51,58.1,Chickpea,Yes,15.55
320,BHAVNAGAR,Ghogha,21.6874043,72.2761717,11,2014,Loam,6.41,3.33,0.83,310.6,5.4,362.1,14.1,Shallow,15.4,8.8,18.6,11.1,48.4,40.3,479.4,6.04,20.1,Wheat,Yes,22.19
321,ANAND,Anand,22.5586555,72.9627227,11,2023,Black Cotton,6.97,0.53,0.78,158.7,15.6,145.0,2.8,Shallow,13.3,9.9,18.5,1.4,36.9,22.4,733.7,5.21,25.1,Wheat,Yes,26.75
322,KACHCHH,Rapar,23.570746,70.6450466,1,2014,Loam,7.42,1.32,0.59,161.7,38.4,330.1,12.8,Medium,17.7,10.5,22.5,5.7,37.2,31.1,590.5,5.86,40.5,Wheat,Yes,28.21
323,BANASKANTHA,Suigam,24.1515492,71.3593406,2,2023,Sandy,6.39,3.65,1.21,119.5,43.8,651.6,5.2,Deep,15.4,12.5,20.1,11.1,33.7,19.9,920.5,6.4,56.6,Wheat,Yes,23.95
324,AHMADABAD,Viramgam,23.1224522,72.0483946,2,2020,Silty,6.84,3.73,0.96,70.67237156629821,38.0,502.9,7.5,Shallow,13.8,8.8,19.9,20.3,42.7,23.4,311.1,4.09,42.2,Onion,Yes,189.83
325,RAJKOT,Paddhari,22.4297959,70.6057564,10,2017,Black Cotton,7.24,3.72,0.97,266.8,44.6,218.2,38.7,Medium,29.8,27.6,33.0,48.8,37.8,36.1,1106.5,3.11,66.2,Soybean,Yes,12.27
326,NAVSARI,Vansada,20.814335692307694,73.0001816016317,6,2019,Loam,7.34,3.54,0.55,92.8,54.4,241.7,44.4,Deep,30.2,22.4,33.1,674.9,95.0,80.0,651.8,2.53,100.0,Maize,Yes,24.59
327,MAHISAGAR,Santrampur,23.1927742,73.8959255,4,2021,Silty,6.36,2.35,1.47,383.9,13.6,200.6,33.2,Medium,34.8,31.7,40.9,3.6,41.8,38.8,419.6,3.39,25.9,Bajra,Yes,14.84
328,PATAN,Sankheshwar,23.79879317530675,71.89748336549079,11,2021,Silty,6.47,2.13,1.34,409.8,38.2,295.6,2.9,Shallow,21.8,18.9,24.2,16.3,44.2,80.0,1159.9,6.71,15.2,Wheat,Yes,28.35
329,RAJKOT,Lodhika,22.1328248,70.6322346,3,2021,Silty,6.56,0.66,0.19,355.3,39.5,130.0,37.5,Shallow,29.7,26.4,31.7,18.1,36.3,18.6,576.6,3.34,68.5,Urad (Black Gram),No,4.348141220827049
330,MORBI,Halvad,23.0182418,71.1833818,2,2017,Silty,6.64,2.48,0.3,464.0,55.6,632.1,28.0,Shallow,16.9,10.8,23.4,6.8,43.2,15.3,1078.2,3.33,38.8,Chickpea,Yes,16.08
331,ARAVALLI,Meghraj,23.5219981,73.5486403,11,2016,Loam,6.52,1.59,1.33,399.2,31.3,93.8,26.8,Deep,14.2,10.3,18.1,5.6,39.0,30.0,640.5,5.94,27.8,Wheat,Yes,20.46
332,VADODARA,Vaghodia,22.3003935,73.3760638,9,2022,Loam,6.73,2.34,0.82,301.6,43.1,536.4,32.2,Shallow,27.0,24.2,31.4,314.1,63.6,37.6,435.8,4.68,100.0,Rice,Yes,34.34
333,DAHOD,Garbada,22.684669,74.3132146,4,2017,Loam,7.07,0.51,1.28,97.2,45.3,502.5,20.3,Shallow,36.3,34.1,42.7,13.2,38.6,8.6,316.6,4.78,60.5,Bajra,Yes,10.83
334,PORBANDAR,Ranavav,21.6986198,69.7268474,12,2020,Silty,6.92,2.6,0.12,82.3,8.3,467.6,28.0,Shallow,11.6,6.3,18.0,11.4,47.7,37.2,721.1,5.49,34.8,Chickpea,Yes,12.21
335,DAHOD,Jhalod,23.1006273,74.1560018,1,2023,Loam,6.76,3.3,1.76,314.4,9.2,500.1,22.5,Deep,22.7,19.5,27.9,8.6,33.0,8.6,818.7,6.19,8.5,Wheat,Yes,21.32
336,BANASKANTHA,Tharad,24.3897272,71.6292685,4,2022,Silty,7.11,1.0,0.24,298.0,7.5,691.2,22.8,Shallow,41.6,37.2,45.0,6.5,34.5,31.6,936.1,6.84,52.0,Bajra,Yes,14.17
337,VADODARA,Sinor,21.9111503,73.3384024,7,2023,Silty,7.38,3.42,0.59,101.2,30.5,625.4,6.0,Deep,27.8,19.8,33.4,226.0,62.6,40.4,715.3,3.49,100.0,Jowar,Yes,12.997594795853267
338,JAMNAGAR,Lalpur,22.1915377,69.963963,4,2020,Loam,7.08,2.45,1.73,296.4,59.7,113.3,2.6,Medium,42.8,38.9,45.3,18.0,50.5,10.7,507.1,3.73,14.4,Bajra,Yes,14.68
339,ANAND,Tarapur,22.4882996,72.6576842,2,2016,Black Cotton,7.06,1.49,0.59,222.2,39.1,492.4,21.0,Deep,24.8,21.2,29.3,13.5,48.9,29.4,832.8,5.15,55.9,Jowar,Yes,14.89
340,PANCHMAHALS,Halol,22.5025899,73.4691058,2,2020,Loam,6.74,1.88,0.26,249.0,40.3,635.1,22.0,Shallow,13.8,9.4,18.0,3.6,31.6,17.7,822.4,3.04,53.9,Mustard,No,9.79819808175952
341,BHAVNAGAR,Gariadhar,21.5385705,71.5792958,1,2023,Black Cotton,7.98,0.3,1.47,401.1,58.8,188.7,11.1,Shallow,21.2,18.8,23.6,15.5,39.7,15.8,918.9,6.28,42.2,Wheat,Yes,30.11
342,BHAVNAGAR,Gariadhar,21.5385705,71.5792958,3,2018,Loam,6.62,1.71,0.91,353.8,13.8,502.8,17.3,Deep,38.3,32.0,41.3,15.9,43.2,10.4,872.9,6.04,55.9,Jowar,Yes,14.97
343,AHMADABAD,Daskroi,22.9538235,72.7502756,2,2019,Black Cotton,6.8,2.11,0.11,241.8,50.8,131.7,21.3,Deep,15.3,12.3,20.0,2.0,37.8,17.7,1153.8,6.85,42.9,Chickpea,Yes,10.3
344,DAHOD,Devgadbaria,22.87978639169436,74.10500860548173,11,2021,Silty,6.82,1.44,1.51,230.1,58.6,268.3,41.8,Medium,14.4,7.3,18.3,11.0,44.9,80.0,513.6,5.04,67.3,Wheat,No,22.951408976816225
345,NARMADA,Dediapada,21.6271369,73.5898076,2,2020,Silty,7.04,2.51,1.03,327.8,32.7,573.8,30.7,Medium,24.0,16.3,30.3,3.5,37.4,33.5,689.0,6.52,47.6,Urad (Black Gram),No,5.694013137142576
346,RAJKOT,Jamkandorna,22.033325356894554,70.76527248505214,5,2018,Silty,7.33,0.07,1.65,68.20942660132742,6.4,563.8,38.2,Deep,35.0,31.5,42.0,29.1,52.4,80.0,847.7,5.99,62.9,Urad (Black Gram),No,4.041335808448515
347,BHARUCH,Amod,21.9907832,72.8706259,3,2022,Silty,6.24,2.85,0.31,85.6,36.7,304.8,34.8,Medium,31.5,29.4,33.6,19.3,47.3,10.9,827.5,4.62,72.1,Urad (Black Gram),No,4.269671015082549
348,RAJKOT,Jetpur,21.7543725,70.6189391,4,2016,Black Cotton,8.37,1.22,1.01,145.3,47.9,560.9,35.1,Deep,30.6,23.4,37.5,1.3,32.3,37.6,365.9,2.7,22.3,Urad (Black Gram),No,4.107581365237722
349,BHARUCH,Jhagadia,21.7157199,73.1497026,7,2014,Loam,7.06,2.52,0.46,227.4,53.9,461.8,21.4,Shallow,24.9,22.7,29.9,156.5,65.2,40.4,631.5,4.29,71.8,Jowar,No,11.596572842756675
350,JAMNAGAR,Jodiya,22.6925104,70.3054102,3,2022,Loam,7.1,0.5,0.47,183.9,17.1,523.0,42.4,Medium,30.2,25.4,35.5,6.6,46.8,20.3,1145.7,6.58,22.6,Urad (Black Gram),No,5.8660776747445205
351,MAHESANA,Kadi,23.2969449,72.3306381,5,2023,Loam,7.41,3.82,0.93,444.9,28.3,535.6,37.1,Deep,33.8,26.9,40.3,2.4,39.2,36.6,1159.0,3.26,32.1,Bajra,No,13.018145221114722
352,TAPI,Vyara,21.1176744,73.3857702,7,2019,Loam,6.64,0.34,1.22,204.8,47.9,129.5,15.7,Shallow,27.2,24.8,30.4,450.5,80.7,13.1,231.3,2.55,100.0,Castor,Yes,13.4
353,MAHESANA,Visnagar,23.6978037,72.5507598,6,2020,Sandy Loam,6.13,0.25,0.94,52.0,20.1,127.5,21.5,Deep,28.7,21.6,33.9,271.5,76.9,37.4,384.4,4.85,85.5,Chickpea,Yes,16.95
354,VADODARA,Desar,22.7384642,73.3099509,12,2020,Silty,6.38,3.03,0.78,291.5,22.2,448.0,18.9,Deep,17.7,10.1,23.9,17.1,33.8,13.5,1025.6,2.6,73.0,Wheat,No,24.04507693439234
355,JUNAGADH,Visavadar,21.3417058,70.7534299,1,2022,Black Cotton,8.28,1.08,1.43,82.1,57.1,98.8,16.2,Deep,16.0,13.3,20.9,16.2,38.0,10.3,796.8,6.17,66.4,Wheat,No,24.07203089950611
356,MAHESANA,Becharaji,23.5443586,72.0851152,6,2018,Black Cotton,7.04,0.41,1.4,364.3,24.4,593.1,12.4,Deep,25.2,23.1,27.5,383.5,72.7,34.1,236.8,0.6,95.3,Rice,Yes,16.68
357,PATAN,Patan,23.8505032,72.1133403,9,2016,Sandy,6.97,0.91,0.72,488.3,52.7,383.8,35.5,Shallow,27.0,24.4,31.9,150.6,54.3,9.2,279.4,1.33,65.1,Sesame,No,3.2833320166383544
358,SURENDRANAGAR,Muli,22.6217,71.4527,7,2019,Loam,6.2,2.03,0.96,55.0,20.0,113.6,29.9,Deep,27.5,21.9,30.9,515.1,91.9,9.1,50.0,0.66,100.0,Cotton,Yes,17.62
359,TAPI,Dolvan,20.902135,73.3331335,12,2023,Black Cotton,6.79,1.6,0.47,417.3,43.0,371.9,9.4,Shallow,15.3,10.3,17.8,5.9,44.6,22.4,537.1,6.5,21.7,Chickpea,No,10.192102343198291
360,DAHOD,Sanjeli,23.0583328,73.9710668,7,2021,Silty,6.25,3.9,1.6,110.2,46.8,56.3,17.1,Medium,30.1,24.7,36.2,320.3,81.8,35.0,588.9,1.24,78.6,Rice,Yes,21.05
361,NARMADA,Tilakwada,21.9693156,73.5897708,11,2018,Silty,6.31,1.86,1.51,171.5,23.4,386.6,30.5,Deep,15.4,10.9,18.1,7.9,35.2,40.5,585.4,2.11,44.1,Wheat,Yes,23.48
362,MORBI,Tankara,22.6562177,70.7486911,5,2015,Black Cotton,7.67,3.6,0.86,480.4,34.0,222.5,31.2,Medium,34.4,29.3,36.6,13.4,38.2,26.6,655.1,4.21,70.6,Bajra,Yes,16.1
363,SURAT,Palsana,21.0859408,72.978046,9,2016,Silty,7.5,2.67,0.62,165.5,49.0,60.1,3.8,Medium,27.5,20.5,31.3,496.6,80.7,10.4,836.5,3.45,100.0,Rice,Yes,28.66
364,KACHCHH,Nakhatrana,23.3495267,69.2653851,10,2020,Loam,6.43,0.18,1.69,146.9,42.3,301.1,19.2,Shallow,32.3,25.0,36.5,73.1,53.4,10.0,942.7,2.88,46.7,Urad (Black Gram),No,5.409407555766841
365,BHARUCH,Jambusar,22.0514367,72.8069758,2,2020,Loam,7.19,2.79,0.96,352.0,24.7,280.2,22.1,Medium,24.0,21.2,26.4,6.0,48.7,33.1,798.3,3.84,46.6,Urad (Black Gram),No,5.714584825549082
366,SURENDRANAGAR,Lakhtar,22.8724876,71.7763542,9,2021,Silty,7.17,0.38,0.56,493.5,10.9,436.3,37.3,Deep,26.9,20.5,32.3,284.9,59.6,12.5,244.5,4.28,94.2,Rice,Yes,38.45
367,ANAND,Umreth,22.6990518,73.115045,8,2014,Black Cotton,7.7,0.5,0.1,313.8,11.7,113.0,10.8,Medium,27.8,22.9,31.3,104.7,44.2,13.8,1003.0,2.78,65.8,Cumin,No,3.786513698617567
368,AMRELI,Rajula,21.038617,71.4438845,3,2017,Black Cotton,7.87,2.21,0.91,166.3,41.7,673.4,23.2,Deep,33.5,30.6,39.6,8.5,36.5,9.5,615.7,4.86,8.9,Urad (Black Gram),Yes,10.13
369,MORBI,Wankaner,22.6153934,70.9495617,5,2021,Loam,7.13,1.46,1.55,266.5,24.2,509.0,18.8,Shallow,29.9,22.7,34.2,5.2,33.3,32.7,872.9,6.59,10.5,Jowar,Yes,11.000262047383464
370,MAHISAGAR,Khanpur,23.3263907,73.6238021,11,2022,Black Cotton,7.35,2.81,1.1,302.9,37.1,589.4,4.9,Shallow,15.4,10.5,22.1,10.9,46.3,40.1,1012.7,5.61,22.6,Chickpea,Yes,10.95
371,KHEDA,Mahudha,22.8201982,72.9386868,5,2023,Loam,6.02,3.01,0.85,205.9,39.7,69.1,9.5,Shallow,33.1,29.6,36.1,21.5,40.9,15.6,430.4,2.7,62.2,Bajra,Yes,11.42
372,DANGS,Ahwa,20.7587262,73.6873533,1,2016,Silty,6.8,2.29,1.57,190.1,42.5,672.5,33.3,Deep,23.7,18.0,27.5,8.2,42.0,10.6,309.7,4.1,31.1,Jowar,Yes,10.84
373,PATAN,Sami,23.6841533,71.7781681,9,2023,Silty,6.28,3.29,0.59,419.2,26.5,282.6,39.5,Shallow,24.5,19.5,31.2,623.8,95.0,7.3,600.7,0.5,100.0,Soybean,Yes,14.54
374,AMRELI,Khambha,21.1410665,71.2537125,3,2014,Loam,7.25,2.95,1.67,341.8,53.3,203.2,5.1,Deep,39.2,31.5,46.1,27.9,44.8,26.7,312.6,4.62,72.1,Bajra,Yes,10.445138372607287
375,DANGS,Subir,20.7587262,73.68735329999998,4,2018,Loam,7.28,0.15,1.43,122.2,38.4,296.6,31.4,Shallow,28.1,23.5,32.2,22.5,35.0,80.0,1091.0,6.8,33.4,Jowar,Yes,12.28
376,AMRELI,Rajula,21.038617,71.4438845,10,2022,Loam,6.98,0.11,1.32,411.9,9.2,132.4,9.8,Shallow,27.3,22.9,29.9,34.1,46.6,28.3,305.5,6.52,25.2,Urad (Black Gram),No,6.253913001078663
377,PANCHMAHALS,Morwa,22.829248945454545,73.03712348181818,9,2019,Silty,7.16,1.01,1.62,179.9,34.8,117.8,16.9,Medium,30.9,23.0,33.6,614.9,95.0,80.0,142.8,0.79,100.0,Maize,Yes,27.23
378,NAVSARI,Khergam,20.6313585,73.0951202,1,2021,Silty,6.39,1.57,1.51,69.7,20.4,446.3,23.3,Medium,13.6,11.3,17.8,5.4,36.6,24.6,577.7,2.1,45.6,Chickpea,Yes,15.42
379,VADODARA,Dabhoi,22.1336175,73.4201004,12,2019,Black Cotton,6.89,1.74,1.34,375.6,8.1,121.0,18.7,Deep,15.9,9.6,20.0,18.8,47.3,14.8,1152.9,4.25,73.3,Wheat,Yes,24.06
380,VALSAD,Vapi,20.3735482,72.9084376,5,2022,Silty,7.33,0.2,0.57,156.3,18.8,474.5,35.2,Shallow,36.7,31.9,39.6,2.8,39.1,21.9,1166.2,4.39,60.4,Bajra,No,12.885530478263611
381,VADODARA,Padra,22.2412214,73.0855259,8,2015,Loam,6.33,3.16,0.54,262.6,17.5,163.4,39.5,Deep,25.4,19.9,31.7,95.6,40.4,30.7,260.0,5.09,41.0,Jowar,Yes,12.74
382,AMRELI,Rajula,21.038617,71.4438845,2,2019,Loam,7.12,0.5,0.23,125.9,36.4,588.9,31.3,Shallow,24.8,20.8,30.7,9.9,39.2,28.1,692.2,6.82,47.4,Sesame,No,4.304276280850783
383,BHARUCH,Bharuch,21.7080427,72.9956936,9,2019,Black Cotton,8.0,2.06,1.09,191.7,16.8,590.0,3.4,Deep,29.7,21.7,36.5,185.1,59.8,40.5,756.3,4.74,77.1,Moong (Green Gram),Yes,10.27
384,SURAT,Olpad,21.3360054,72.7516479,5,2019,Clay,7.97,1.21,0.51,144.2,47.2,285.3,21.6,Deep,36.3,33.8,40.3,24.1,43.6,8.2,582.1,4.3,24.8,Urad (Black Gram),Yes,9.19
385,SABARKANTHA,Poshina,24.3731337,73.0324745,11,2020,Silty,7.03,2.44,1.45,190.5,11.5,315.5,23.7,Shallow,19.7,17.6,26.1,10.7,33.5,14.8,771.5,6.6,55.4,Wheat,Yes,32.09
386,PATAN,Chanasma,23.7150529,72.1150247,7,2022,Silty,6.63,1.64,1.05,364.6,11.5,633.3,40.6,Deep,27.1,19.4,33.7,452.8,93.5,27.5,727.3,1.92,100.0,Rice,Yes,39.91574452098935
387,BOTAD,Gadhada,21.9682625,71.5769241,1,2016,Black Cotton,7.4,2.71,0.87,180.6,14.7,519.6,14.0,Shallow,18.9,13.9,23.5,3.4,48.9,15.3,613.2,5.77,67.7,Wheat,Yes,29.28
388,SABARKANTHA,Khedbrahma,24.0310837,73.0484016,6,2023,Loam,6.61,0.7,0.59,258.7,17.3,160.1,42.4,Medium,30.5,27.3,33.2,686.4,95.0,32.0,50.0,3.08,100.0,Maize,Yes,32.73
389,ANAND,Anand,22.5586555,72.9627227,7,2023,Black Cotton,6.92,0.55,0.87,461.5,44.4,647.5,7.2,Medium,26.4,18.6,31.7,278.7,73.9,31.6,322.0,0.98,70.9,Chickpea,Yes,11.31
390,BANASKANTHA,Kankrej,24.0387783,71.9411013,7,2014,Loam,6.61,3.19,0.64,425.5,41.4,620.4,3.5,Deep,25.9,22.7,29.0,440.2,83.4,22.3,207.7,2.28,100.0,Rice,Yes,19.72
391,SURAT,Madvi,21.21105087919355,73.02497339854838,9,2021,Black Cotton,6.55,0.75,0.81,153.6,25.9,429.5,29.4,Medium,31.6,25.6,38.0,599.2,95.0,80.0,518.4,1.72,100.0,Cotton,Yes,13.81
392,JUNAGADH,Manavadar,21.4979645,70.1406499,11,2017,Silty,6.04,1.89,0.64,83.4,43.3,508.1,35.3,Medium,23.5,19.9,25.6,17.1,36.0,34.8,630.0,4.72,29.4,Wheat,Yes,30.44
393,TAPI,Kukarmunda,21.5470826,74.1262241,12,2021,Loam,6.59,3.28,0.62,222.6,36.5,158.2,10.9,Deep,26.7,19.0,31.4,1.9,30.6,19.1,990.5,3.66,28.3,Jowar,Yes,11.76
394,RAJKOT,VINCHHIYA,22.2102309,71.3796336,7,2022,Black Cotton,6.9,3.22,1.65,185.8,16.9,526.7,42.4,Shallow,31.0,28.7,37.0,563.4,92.0,6.1,568.3,2.62,100.0,Castor,Yes,11.41
395,BHAVNAGAR,Ghogha,21.6874043,72.2761717,2,2015,Loam,7.11,2.83,1.35,61.8270198269841,45.8,402.1,41.5,Shallow,22.8,18.9,26.4,11.0,41.3,6.3,504.9,2.95,24.4,Wheat,Yes,21.11
396,NARMADA,Garudeshwar,21.8898443,73.6551011,5,2021,Black Cotton,7.21,1.02,0.13,263.6,26.7,292.3,25.5,Shallow,35.3,30.4,39.5,8.3,33.0,16.6,382.4,5.11,12.1,Bajra,Yes,11.129932912401514
397,AHMADABAD,Dhandhuka,22.3816365,71.9791414,9,2021,Black Cotton,8.19,3.05,0.2,261.9,27.7,531.3,37.9,Shallow,31.0,24.5,36.5,258.7,71.8,24.5,418.0,3.97,77.7,Moong (Green Gram),No,4.112591460426741
398,SURENDRANAGAR,Lakhtar,22.8724876,71.7763542,7,2015,Loam,7.15,0.69,1.37,108.1,29.1,681.7,3.7,Medium,31.1,26.6,37.5,366.1,66.8,9.5,1012.9,3.77,100.0,Castor,No,8.086677701867858
399,KACHCHH,Rapar,23.570746,70.6450466,10,2017,Black Cotton,6.69,2.44,0.9,129.0,23.2,535.4,44.8,Shallow,30.3,25.5,33.2,20.0,51.9,5.3,906.4,2.9,15.1,Bajra,No,12.345036503592665
400,JUNAGADH,Vanthali,21.4772602,70.3321207,6,2017,Black Cotton,6.56,0.81,0.58,458.4,28.4,524.1,17.8,Medium,30.4,27.8,35.4,678.4,95.0,11.3,446.3,0.5,100.0,Soybean,Yes,10.84
401,PATAN,Sankheshwar,23.79879317530675,71.89748336549079,11,2023,Silty,6.17,0.06,0.49,131.7,56.1,449.7,8.2,Medium,17.9,13.3,22.5,24.6,45.8,80.0,713.1,2.47,46.3,Wheat,Yes,27.28
402,DEVBHUMI,DWARKA,22.2424747,68.9671448,4,2023,Loam,6.99,3.34,1.31,424.7,35.8,368.6,35.9,Deep,41.6,34.5,47.9,3.7,45.8,17.3,651.0,5.06,62.7,Urad (Black Gram),No,4.398600580808329
403,VADODARA,Padra,22.2412214,73.0855259,9,2019,Loam,6.49,1.28,0.26,203.4,19.0,649.0,28.1,Shallow,28.6,25.0,34.1,389.5,70.1,25.6,84.2,3.64,100.0,Rice,Yes,28.8
404,AHMADABAD,Bavla,22.8278859,72.3684741,1,2015,Silty,6.2,3.58,0.36,376.0,52.9,135.6,20.0,Shallow,22.1,14.2,26.8,0.8,34.0,27.0,265.4,6.19,60.3,Wheat,Yes,21.44
405,AHMADABAD,Detroj-Rampura,23.3291312,72.1639025,7,2020,Black Cotton,7.64,0.31,1.5,265.7,45.1,104.6,21.1,Medium,30.1,22.5,36.3,393.2,75.5,25.1,165.2,2.36,100.0,Tur (Pigeon Pea),Yes,12.16
406,SABARKANTHA,Idar,23.8362255,73.0114616,10,2019,Silty,7.48,3.08,1.44,132.2,25.6,102.8,33.1,Shallow,28.4,22.0,34.1,31.5,39.4,18.9,507.0,3.23,48.0,Bajra,Yes,16.38
407,VADODARA,Vaghodia,22.3003935,73.3760638,5,2021,Loam,7.07,2.34,0.69,331.7,29.7,460.2,37.8,Shallow,36.0,31.4,43.0,19.2,44.8,29.5,514.6,3.61,71.8,Bajra,Yes,10.8
408,BANASKANTHA,Suigam,24.1515492,71.3593406,1,2018,Loam,7.15,2.54,0.91,249.6,22.8,416.5,30.3,Shallow,12.3,7.4,15.1,5.5,37.3,36.9,425.0,3.76,16.7,Wheat,Yes,22.64
409,SABARKANTHA,Vadali,23.9411124,73.0403755,8,2020,Loam,6.31,1.52,0.67,348.9,21.5,681.0,39.7,Deep,28.2,25.2,33.2,133.0,46.6,16.1,750.5,4.83,65.7,Sesame,No,4.829617971586627
410,VADODARA,Savli,22.562511,73.2230996,5,2015,Loam,7.0,1.86,0.38,56.96092917887992,13.1,623.9,15.0,Shallow,39.3,34.0,42.1,4.4,46.0,5.8,399.2,2.48,41.6,Bajra,Yes,15.78
411,SURENDRANAGAR,Chuda,22.4815114,71.6881728,7,2015,Loam,6.52,3.74,0.78,183.7,20.6,488.6,39.5,Deep,24.8,21.5,29.7,310.5,73.2,32.2,445.4,2.15,100.0,Chickpea,Yes,13.99
412,MAHESANA,Vadnagar,23.7853622,72.6332132,5,2017,Sandy Loam,6.38,1.57,0.41,100.9,22.1,488.9,22.7,Medium,33.4,28.6,39.6,20.3,33.7,29.5,336.2,6.21,61.3,Bajra,Yes,12.14
413,SABARKANTHA,Vadali,23.9411124,73.0403755,7,2020,Loam,6.47,1.07,1.18,313.7,49.1,342.7,18.0,Medium,32.9,28.4,35.8,538.0,95.0,36.1,57.0,0.5,100.0,Castor,No,10.453747417847024
414,KACHCHH,Rapar,23.570746,70.6450466,5,2021,Loam,6.01,1.98,0.72,447.9,42.8,214.0,16.5,Medium,29.0,24.3,33.1,19.5,37.9,6.4,346.4,5.56,43.4,Jowar,Yes,14.86
415,NAVSARI,Chikhli,20.7581399,73.0598983,6,2018,Silty,7.36,1.01,1.5,422.4,45.3,390.3,21.7,Shallow,24.6,22.0,30.7,269.8,67.2,31.0,436.0,3.83,78.6,Rice,Yes,15.91
416,BHAVNAGAR,Vallabhipur,21.8885909,71.8781618,2,2020,Loam,7.33,3.98,1.15,283.4,48.7,501.3,4.1,Deep,21.9,18.2,27.8,8.2,44.2,26.5,1110.2,5.35,24.4,Wheat,Yes,28.92
417,AMRELI,Amreli,21.6009239,71.2168014,2,2019,Loam,6.22,2.85,0.48,317.4,45.0,446.1,21.8,Medium,15.3,11.3,17.4,11.2,38.0,20.8,683.2,5.65,20.9,Wheat,Yes,20.71
418,SURAT,Kamrej,21.2797773,72.948269,9,2021,Silty,6.7,3.0,1.0,172.9,46.3,343.5,22.1,Shallow,26.5,24.4,33.5,374.9,87.0,25.1,528.8,1.3,100.0,Rice,Yes,29.29
419,RAJKOT,VINCHHIYA,22.2102309,71.3796336,5,2023,Loam,7.44,3.08,1.77,490.1,35.3,278.8,11.4,Deep,38.3,32.5,43.7,8.1,43.5,22.9,751.8,3.09,32.9,Bajra,Yes,12.01
420,RAJKOT,Jasdan,22.0399,71.2046,9,2014,Silty,6.87,2.64,1.26,76.2,36.9,321.8,20.0,Shallow,29.6,24.0,36.6,380.3,82.7,38.3,368.6,1.35,100.0,Rice,Yes,15.77
421,JAMNAGAR,Kalavad,22.2143736,70.3834253,9,2022,Loam,7.14,0.69,0.73,441.1,14.6,659.1,41.6,Medium,25.3,19.2,29.6,152.6,54.1,13.5,341.7,3.55,77.2,Sesame,No,3.353644190621419
422,MAHISAGAR,Balasinor,22.9561711,73.3370129,1,2015,Black Cotton,7.38,2.72,1.57,497.9,52.4,95.7,19.9,Medium,19.2,12.9,26.1,15.9,40.4,34.6,298.9,5.98,62.0,Onion,Yes,160.51
423,VADODARA,Padra,22.2412214,73.0855259,2,2015,Loam,7.18,3.04,1.09,402.1,44.7,288.2,30.2,Shallow,24.3,21.9,29.5,13.0,49.3,22.8,476.0,3.23,26.8,Jowar,Yes,12.11
424,DAHOD,Garbada,22.684669,74.3132146,9,2016,Silty,6.57,3.53,1.06,365.5,21.9,515.3,26.4,Medium,27.8,24.9,33.3,284.1,64.3,19.3,712.9,0.72,75.6,Rice,Yes,27.44
425,MAHESANA,Vadnagar,23.7853622,72.6332132,8,2020,Silty,7.34,3.89,1.19,306.0,32.6,390.2,18.3,Medium,32.0,26.0,35.9,414.1,72.7,13.4,239.1,0.68,100.0,Rice,Yes,17.57
426,AHMADABAD,Viramgam,23.1224522,72.0483946,12,2014,Black Cotton,8.37,2.98,0.72,60.26864506607871,39.5,668.8,23.8,Medium,18.4,16.1,25.3,10.7,42.4,14.1,487.9,5.65,52.0,Wheat,No,22.51769842796916
427,PATAN,Sami,23.6841533,71.7781681,5,2022,Loam,6.86,2.95,1.66,455.9,12.3,246.8,10.9,Shallow,36.0,32.1,41.9,15.3,44.2,12.2,352.9,2.34,20.9,Bajra,Yes,10.771188169687388
428,KACHCHH,Bhuj,23.2472446,69.668339,12,2015,Silty,7.15,0.82,1.47,318.8,30.1,50.3,34.4,Deep,20.9,15.0,24.3,5.0,35.8,23.7,571.6,5.36,38.7,Potato,Yes,159.45
429,BHAVNAGAR,Talaja,21.3545788,72.0368814,3,2016,Loam,7.48,2.71,0.26,435.2,23.8,496.5,37.4,Shallow,38.7,33.5,42.3,17.9,33.8,15.9,820.1,4.77,18.6,Jowar,Yes,13.66
430,PANCHMAHALS,Ghoghamba,22.829248945454545,73.03712348181818,8,2022,Black Cotton,7.4,1.7,1.33,137.5,19.5,657.3,37.9,Medium,26.9,22.3,31.1,243.2,62.2,80.0,852.5,2.8,100.0,Cotton,Yes,12.12
431,DAHOD,Dhanpur,22.6367611,74.098681,5,2018,Silty,6.66,1.74,0.75,292.3,45.6,568.4,28.6,Medium,30.0,23.7,34.4,17.9,41.2,39.8,284.8,5.21,53.3,Bajra,Yes,14.37
432,RAJKOT,Dhoraji,21.7220402,70.4443401,5,2019,Black Cotton,6.68,3.7,0.29,93.1,46.2,261.0,35.3,Medium,40.0,35.4,44.8,24.7,39.0,24.2,865.3,4.66,63.1,Jowar,Yes,11.08150285352065
433,DANGS,Subir,20.7587262,73.68735329999998,8,2019,Black Cotton,8.33,0.78,0.9,246.6,23.3,490.5,32.3,Medium,32.0,25.2,36.1,520.0,95.0,80.0,50.0,4.35,100.0,Cotton,No,11.460352719686648
434,DANGS,Ahwa,20.7587262,73.6873533,10,2018,Silty,6.99,2.95,1.06,487.9,47.9,395.6,36.3,Shallow,28.7,22.6,31.1,43.1,50.7,22.0,1073.3,6.75,23.5,Bajra,Yes,15.07
435,MAHESANA,Kadi,23.2969449,72.3306381,1,2020,Silty,7.34,0.08,1.51,70.43368100314187,17.4,327.6,13.1,Shallow,22.3,15.4,25.3,10.2,49.5,36.7,924.1,4.83,19.3,Wheat,Yes,23.2
436,MORBI,MALIYA,23.0931749,70.7599456,9,2016,Silty,6.82,1.34,0.64,138.1,16.5,246.9,20.2,Medium,33.8,26.1,40.2,267.4,59.2,38.3,140.4,5.0,100.0,Jowar,Yes,14.37
437,PATAN,Santalpur,23.7598357,71.1822023,2,2015,Loam,7.12,2.33,0.98,106.6,16.5,661.5,33.8,Medium,15.0,10.8,21.0,11.9,36.3,9.2,678.2,1.98,59.6,Mustard,Yes,12.35
438,ANAND,Khambhat,22.3166806,72.6243126,4,2018,Black Cotton,7.32,2.59,0.76,251.5,57.3,228.6,29.8,Medium,41.3,38.5,45.9,1.0,39.5,6.9,815.9,3.04,53.3,Bajra,Yes,14.73
439,ANAND,Borsad,22.4094019,72.905252,12,2016,Black Cotton,7.24,3.52,0.29,106.3,32.4,248.9,28.9,Medium,13.8,7.4,18.2,8.0,33.7,19.9,758.5,5.77,53.6,Wheat,Yes,23.19
440,SABARKANTHA,Poshina,24.3731337,73.0324745,8,2021,Sandy Loam,7.46,2.17,0.33,313.5,40.0,252.4,22.2,Medium,29.9,25.0,35.5,148.7,59.8,35.4,362.1,2.36,43.2,Moong (Green Gram),No,5.778028817979681
441,PORBANDAR,Porbandar,21.6409,69.611,4,2015,Loam,6.3,2.93,0.61,363.9,30.4,434.0,24.2,Medium,29.4,21.8,34.3,22.0,32.9,36.8,604.8,2.13,22.3,Jowar,No,11.867505739538739
442,ANAND,Tarapur,22.4882996,72.6576842,8,2023,Silty,7.17,0.79,1.58,486.3,27.3,695.3,21.5,Medium,25.1,21.1,31.7,331.3,81.0,14.5,851.0,2.78,100.0,Rice,Yes,25.59
443,AMRELI,Bagasara,21.4857835,70.9559406,9,2014,Loam,6.42,3.9,1.51,86.5,44.2,132.1,16.9,Medium,31.8,27.4,36.3,287.3,77.6,40.1,291.5,4.76,76.9,Jowar,Yes,15.87
444,PANCHMAHALS,Morwa,22.829248945454545,73.03712348181818,1,2022,Black Cotton,6.66,0.96,1.71,279.5,25.6,115.1,9.1,Deep,14.5,6.8,19.2,24.4,40.9,80.0,284.3,6.73,35.9,Wheat,Yes,22.81
445,AHMADABAD,Dhandhuka,22.3816365,71.9791414,1,2018,Loam,6.3,2.25,0.63,463.8,38.7,673.5,4.5,Medium,17.3,9.4,24.2,2.1,38.0,11.0,647.0,4.95,21.6,Wheat,Yes,22.99
446,ANAND,Khambhat,22.3166806,72.6243126,11,2023,Loam,6.16,0.61,0.57,183.9,40.0,388.4,24.5,Deep,14.3,8.6,19.0,9.9,34.1,36.3,961.6,5.55,63.9,Wheat,Yes,24.64
447,JAMNAGAR,Dhrol,22.5675674,70.4164394,12,2016,Black Cotton,8.27,1.97,0.59,275.7,9.9,525.6,43.3,Medium,23.3,21.0,27.5,4.6,32.6,32.0,1047.9,5.64,64.7,Wheat,No,20.684886320024265
448,SURAT,Kamrej,21.2797773,72.948269,4,2021,Black Cotton,7.08,2.38,1.23,78.9,48.0,510.5,26.1,Deep,35.6,30.1,40.6,11.3,47.0,39.0,791.2,2.53,56.9,Bajra,Yes,13.090169895214778
449,BANASKANTHA,Dantiwada,24.3239388,72.3255763,11,2019,Sandy Loam,7.19,2.31,0.99,471.9,49.7,458.3,35.4,Deep,14.6,10.8,18.2,13.2,39.6,6.5,677.2,6.38,30.9,Wheat,Yes,29.35
450,SABARKANTHA,Vadali,23.9411124,73.0403755,3,2018,Loam,7.29,3.46,1.2,378.1,46.4,557.6,9.4,Medium,32.0,28.6,38.2,22.3,48.8,9.2,924.7,5.09,29.8,Bajra,Yes,13.81
451,MAHESANA,Becharaji,23.5443586,72.0851152,6,2021,Loam,7.45,1.32,0.29,303.5,55.0,505.1,26.1,Deep,29.1,23.5,31.6,410.1,88.5,19.6,295.1,3.53,100.0,Cotton,Yes,11.3
452,JAMNAGAR,Jodiya,22.6925104,70.3054102,10,2018,Black Cotton,8.19,1.33,0.48,418.3,18.5,150.8,44.7,Shallow,31.4,25.5,34.5,51.6,39.5,5.5,455.7,1.84,55.1,Bajra,Yes,11.334016625391836
453,BANASKANTHA,Kankrej,24.0387783,71.9411013,7,2023,Silty,7.34,3.61,0.76,152.9,48.8,286.6,36.5,Medium,32.7,25.0,36.5,351.5,67.8,35.5,1011.2,1.47,100.0,Rice,Yes,24.21
454,AMRELI,Kunkavav,21.6342,70.9804,4,2023,Black Cotton,6.61,2.82,1.76,415.9,17.3,224.9,38.0,Medium,33.6,28.2,36.5,16.9,42.9,7.2,571.8,6.26,18.0,Bajra,Yes,11.4
455,SURENDRANAGAR,Muli,22.6217,71.4527,8,2023,Silty,7.11,3.77,1.78,131.1,29.9,400.0,31.0,Medium,31.7,23.8,37.5,231.9,64.9,35.5,1056.4,1.1,100.0,Jowar,Yes,14.23
456,KHEDA,Mehmedabad,22.8621774,72.7957815,4,2017,Black Cotton,7.98,3.96,1.52,72.08116353541294,56.1,523.6,16.3,Shallow,36.4,30.2,40.4,28.9,35.7,17.6,326.6,3.64,56.8,Bajra,Yes,14.72
457,MAHESANA,Mahesana,23.6015557,72.3867981,6,2015,Silty,6.83,2.12,0.13,314.9,59.0,88.4,18.0,Shallow,33.4,26.6,36.9,79.9,49.4,18.6,276.0,2.46,62.4,Bajra,Yes,15.57
458,AHMADABAD,Bavla,22.8278859,72.3684741,10,2019,Loam,7.34,2.84,1.6,113.4,13.2,582.3,3.3,Shallow,32.2,24.6,38.9,73.8,39.5,29.4,773.7,2.47,26.2,Bajra,Yes,14.78
459,KHEDA,Kathlal,22.8985648,72.9908519,8,2020,Loam,6.86,0.31,0.52,96.4,57.8,369.0,36.1,Shallow,31.4,25.2,37.9,326.8,79.5,9.1,580.5,3.69,91.2,Castor,Yes,9.48
460,SURAT,MAHUVA,21.0180294,73.1388718,3,2019,Silty,7.43,1.21,1.16,220.0,25.7,368.8,23.1,Medium,35.1,28.5,41.0,12.6,45.2,24.1,283.2,6.67,27.5,Bajra,Yes,13.86
461,BHARUCH,Anklesvar,21.76338667452416,73.00471180351391,5,2014,Silty,6.1,3.86,0.19,417.9,53.1,530.1,24.5,Shallow,38.4,35.3,42.7,16.3,36.1,80.0,920.2,4.4,45.4,Urad (Black Gram),Yes,9.91
462,BHARUCH,Anklesvar,21.76338667452416,73.00471180351391,11,2017,Silty,7.37,3.95,1.51,204.7,51.1,79.1,8.1,Shallow,15.1,7.7,20.7,17.7,38.0,80.0,861.8,6.48,35.1,Chickpea,Yes,15.46
463,MAHESANA,Visnagar,23.6978037,72.5507598,10,2018,Loam,7.5,1.61,1.28,241.1,41.5,194.9,29.4,Shallow,30.2,23.8,33.0,14.2,50.5,30.5,903.2,3.35,26.5,Bajra,Yes,11.702399305830475
464,RAJKOT,Gondal,21.9575096,70.8009896,9,2015,Clay,6.14,2.1,0.16,255.0,11.1,74.7,18.7,Shallow,31.1,28.2,35.3,471.9,89.1,6.6,901.0,3.47,100.0,Cotton,Yes,15.79
465,KHEDA,Vaso,22.6609576,72.7553379,6,2016,Silty,6.14,2.59,0.77,102.0,21.0,91.4,9.9,Shallow,30.9,25.3,37.1,205.1,56.3,11.2,667.2,2.56,53.3,Jowar,Yes,12.33
466,NAVSARI,Jalalpore,20.9484948,72.897892,3,2014,Loam,7.27,0.07,0.11,57.5,26.3,418.5,38.9,Deep,34.7,29.3,39.1,0.7,37.8,29.6,617.1,6.55,20.6,Bajra,Yes,12.02
467,PANCHMAHALS,Shehera,22.829248945454545,73.03712348181818,9,2021,Silty,6.22,1.18,1.34,482.6,26.4,217.2,8.9,Deep,31.6,26.4,37.2,146.4,49.2,80.0,974.9,3.03,95.5,Moong (Green Gram),No,5.5373315368913945
468,MAHESANA,Kadi,23.2969449,72.3306381,11,2019,Silty,6.09,2.14,0.52,364.9,36.3,666.2,33.4,Deep,17.6,13.8,21.5,7.3,38.6,21.9,762.0,4.22,65.3,Wheat,Yes,20.58
469,BHAVNAGAR,Sihor,21.720494,71.9605587,9,2020,Clay,6.08,1.8,1.28,211.4,41.7,227.7,34.1,Deep,29.2,25.3,32.0,518.5,86.8,31.2,715.2,1.84,100.0,Cotton,Yes,20.62
470,VADODARA,Vadodara,22.2973142,73.1942567,1,2014,Loam,6.56,0.41,1.68,197.6,45.9,672.7,15.2,Shallow,23.7,17.5,28.1,6.2,36.4,9.2,780.7,6.47,16.1,Jowar,Yes,14.66
471,MAHESANA,Kadi,23.2969449,72.3306381,12,2018,Loam,7.25,2.67,0.35,239.1,46.6,138.1,18.4,Medium,21.3,16.7,25.1,8.5,42.3,21.1,264.6,4.42,50.4,Wheat,Yes,28.87
472,AMRELI,Khambha,21.1410665,71.2537125,3,2020,Loam,7.32,3.17,1.24,481.9,22.6,512.4,42.8,Shallow,41.4,33.4,46.4,9.8,38.3,14.1,732.9,6.86,65.7,Bajra,No,10.98788373355496
473,MORBI,MALIYA,23.0931749,70.7599456,6,2020,Loam,6.37,3.98,1.22,339.9,23.3,70.4,39.5,Deep,30.5,26.2,34.9,108.5,54.8,14.6,552.1,3.29,60.0,Sesame,Yes,3.71
474,PANCHMAHALS,Godhra,22.829248945454545,73.03712348181818,8,2017,Silty,6.35,3.66,1.66,69.9,41.6,257.1,23.9,Shallow,26.8,24.4,29.7,180.7,59.5,80.0,242.7,1.48,88.1,Moong (Green Gram),Yes,9.13
475,DAHOD,Dhanpur,22.6367611,74.098681,11,2021,Silty,6.81,0.47,0.31,360.9,16.0,534.9,5.5,Shallow,12.7,6.4,15.8,11.1,38.8,27.7,427.5,6.03,53.3,Wheat,Yes,20.79
476,VALSAD,Umbergaon,20.1537655,72.7905804,3,2021,Black Cotton,7.23,0.74,0.44,97.6,34.8,682.3,32.1,Deep,29.9,25.5,33.0,22.4,49.0,15.9,630.5,5.09,23.7,Bajra,Yes,13.84
477,AHMADABAD,Viramgam,23.1224522,72.0483946,3,2018,Loam,6.28,2.0,1.63,58.4,46.6,329.6,31.0,Deep,42.2,34.7,48.1,12.6,45.2,26.6,1155.0,4.79,54.8,Bajra,Yes,14.22
478,MORBI,MALIYA,23.0931749,70.7599456,12,2022,Loam,6.23,0.72,1.27,222.6,53.4,260.8,36.2,Medium,25.7,21.2,31.5,8.5,31.3,10.0,546.6,6.91,47.8,Jowar,Yes,11.59
479,AMRELI,Rajula,21.038617,71.4438845,4,2016,Loam,6.14,1.92,0.56,122.9,32.4,152.9,37.7,Deep,30.7,23.6,34.9,7.9,40.5,28.6,581.8,2.49,68.5,Bajra,Yes,14.74
480,BANASKANTHA,Palanpur,24.1709794,72.4366375,1,2021,Sandy Loam,7.31,1.39,0.63,320.7,38.6,439.4,24.8,Medium,23.7,21.3,30.6,14.4,40.4,20.1,441.8,3.56,23.1,Bajra,Yes,13.33
481,SABARKANTHA,Himatnagar,23.5971246,72.9588273,6,2023,Black Cotton,7.25,0.55,0.65,327.4,58.4,198.8,27.5,Shallow,25.8,18.5,29.4,504.1,88.1,10.8,303.5,2.13,100.0,Cotton,Yes,13.59
482,SURAT,Palsana,21.0859408,72.978046,12,2018,Loam,6.66,3.12,0.91,135.0,5.2,281.5,28.7,Deep,14.4,9.2,19.4,2.2,46.7,28.2,1158.7,4.98,13.3,Chickpea,Yes,12.24
483,BHARUCH,Jhagadia,21.7157199,73.1497026,12,2020,Loam,6.45,0.86,0.6,73.01779467122215,40.4,323.9,17.9,Shallow,17.5,9.9,21.1,6.2,39.7,12.5,823.1,3.39,44.4,Wheat,Yes,31.38
484,BHAVNAGAR,Mahuva,21.0914409,71.7621979,9,2020,Loam,7.16,2.6,0.77,183.5,51.0,72.4,14.2,Deep,24.7,19.7,30.3,502.6,95.0,10.3,95.8,0.5,100.0,Castor,Yes,13.1
485,AMRELI,Lathi,21.724718,71.3899959,9,2020,Loam,7.18,2.59,0.77,102.8,50.3,579.3,21.3,Shallow,33.3,31.2,38.7,452.9,88.1,29.7,478.3,0.5,100.0,Castor,Yes,9.65
486,TAPI,Nizar,21.476998,74.1958106,1,2020,Black Cotton,7.95,1.99,1.24,357.6,35.3,76.1,27.4,Shallow,20.1,15.0,26.5,3.4,46.9,19.7,392.9,2.02,46.5,Wheat,Yes,20.98
487,BOTAD,Botad,22.1686,71.6685,6,2018,Loam,6.55,1.08,0.3,164.1,6.6,442.2,30.0,Deep,27.0,19.4,29.5,421.2,76.2,31.9,738.3,1.38,100.0,Rice,Yes,17.2
488,VALSAD,Dharampur,20.5360672,73.1740929,4,2018,Black Cotton,6.95,0.1,1.51,434.4,16.3,665.4,18.7,Medium,32.2,26.6,36.6,12.7,47.2,29.0,1134.6,2.33,14.5,Bajra,No,11.17368691079702
489,KHEDA,Mehmedabad,22.8621774,72.7957815,7,2021,Black Cotton,7.32,0.68,0.19,131.2,15.5,325.1,39.7,Shallow,31.6,28.7,34.2,213.9,60.5,38.2,1077.2,5.5,55.6,Urad (Black Gram),No,6.310290997456599
490,JAMNAGAR,Jodiya,22.6925104,70.3054102,2,2015,Black Cotton,6.58,3.49,1.09,292.0,19.9,506.9,22.6,Deep,15.4,10.8,17.6,12.8,40.6,11.2,256.2,6.43,50.2,Wheat,Yes,29.93
491,KACHCHH,Rapar,23.570746,70.6450466,4,2018,Loam,6.9,3.25,1.79,50.7,36.0,607.0,26.0,Deep,32.6,27.0,36.4,15.9,40.7,21.7,397.8,5.21,32.3,Bajra,Yes,15.75
492,MORBI,MALIYA,23.0931749,70.7599456,6,2021,Silty,6.2,2.71,1.61,347.6,27.4,674.9,5.7,Medium,27.8,20.6,33.6,558.8,89.2,6.7,451.6,3.51,100.0,Maize,Yes,27.61
493,RAJKOT,VINCHHIYA,22.2102309,71.3796336,12,2017,Silty,6.48,1.7,0.29,265.7,7.3,117.5,2.2,Deep,13.7,11.0,17.4,10.7,45.7,33.2,765.7,3.92,49.8,Wheat,Yes,25.22
494,SURAT,Madvi,21.21105087919355,73.02497339854838,3,2021,Black Cotton,8.36,0.79,0.1,403.0,32.7,120.1,8.2,Shallow,32.9,27.1,35.9,28.2,51.9,80.0,251.3,3.34,24.1,Bajra,No,11.83272202299429
495,VADODARA,Vadodara,22.2973142,73.1942567,1,2020,Black Cotton,7.41,1.41,0.74,172.8,39.1,647.7,29.3,Deep,19.4,13.2,21.6,0.5,47.3,19.1,761.8,2.49,49.9,Wheat,No,21.412010185219813
496,GIR,SOMNATH,20.8957174,70.4080467,2,2021,Silty,6.31,0.41,0.52,420.4,39.7,111.1,18.3,Medium,26.4,19.3,32.3,3.7,34.7,19.5,257.9,2.62,61.8,Bajra,No,11.564519033645327
497,BANASKANTHA,Suigam,24.1515492,71.3593406,9,2020,Silty,7.07,1.05,0.3,272.9,14.6,343.6,38.7,Shallow,28.7,25.5,34.9,215.6,61.3,5.5,879.2,4.95,100.0,Jowar,Yes,10.67
498,JUNAGADH,Mangrol,21.1241507,70.1199203,12,2017,Silty,6.85,3.79,0.3,107.3,12.3,686.2,28.0,Shallow,18.6,12.4,23.2,9.3,43.6,8.7,695.3,3.34,43.1,Potato,Yes,179.67
499,AMRELI,Lilia,21.5405819,71.392995,3,2017,Loam,6.47,0.39,0.42,122.4,41.3,404.8,26.0,Medium,39.3,35.9,44.1,1.6,33.1,9.9,915.6,2.05,9.2,Urad (Black Gram),Yes,9.35
500,KACHCHH,Mundra,22.8393153,69.7249477,8,2017,Sandy,6.1,1.93,0.91,76.6,26.3,461.7,25.3,Shallow,24.9,19.8,27.2,203.9,70.1,24.9,382.8,4.75,100.0,Jowar,Yes,16.39
501,PATAN,Sami,23.6841533,71.7781681,1,2020,Sandy,6.29,3.73,0.76,315.0,52.7,536.6,7.5,Deep,18.0,14.6,23.2,16.1,42.0,22.8,313.2,4.92,35.3,Chickpea,Yes,15.69
502,VALSAD,Vapi,20.3735482,72.9084376,8,2018,Black Cotton,8.08,3.67,0.62,281.6,23.0,250.3,42.8,Deep,30.8,24.7,35.6,390.7,81.1,33.1,185.0,1.74,100.0,Castor,Yes,12.88
503,RAJKOT,Paddhari,22.4297959,70.6057564,10,2018,Black Cotton,6.51,3.71,0.65,142.5,15.5,682.0,10.2,Medium,27.5,20.9,32.8,39.6,51.8,10.0,961.6,3.28,57.6,Jowar,Yes,10.43
504,DANGS,Ahwa,20.7587262,73.6873533,11,2018,Loam,6.16,3.17,1.51,116.0,40.6,373.0,12.6,Medium,25.5,23.1,28.8,11.2,33.6,18.9,767.5,3.91,11.6,Sesame,Yes,5.27
505,NAVSARI,Vansada,20.814335692307694,73.0001816016317,10,2022,Silty,6.14,0.25,0.83,491.4,37.7,359.6,18.6,Shallow,23.5,21.1,25.7,26.8,34.8,80.0,357.7,2.35,58.7,Wheat,Yes,28.77
506,BANASKANTHA,Amirgadh,24.4060517,72.6411054,5,2018,Sandy Loam,6.27,0.92,1.13,383.3,56.0,279.8,12.2,Shallow,31.5,28.3,37.6,12.1,43.5,38.9,330.6,5.64,71.0,Moong (Green Gram),Yes,9.02
507,MAHESANA,Jotana,23.4711736,72.2927648,3,2016,Loam,6.39,0.06,1.24,234.5,52.3,602.2,21.2,Shallow,29.3,25.0,35.0,2.8,42.6,18.8,762.8,3.35,62.9,Jowar,Yes,14.66
508,AHMADABAD,Sanand,23.0238876,72.3851475,10,2021,Loam,6.69,2.83,1.12,358.5,25.8,562.2,10.9,Medium,25.0,17.7,28.9,32.8,52.5,29.5,768.7,5.07,15.8,Jowar,No,14.330634153667296
509,SURENDRANAGAR,Limbdi,22.5660006,71.7899425,7,2021,Loam,6.9,1.43,0.56,458.5,19.3,152.8,11.4,Deep,28.8,24.6,35.7,501.1,95.0,8.5,869.5,0.5,100.0,Castor,Yes,9.48
510,VADODARA,Vadodara,22.2973142,73.1942567,3,2018,Loam,6.81,0.71,0.21,439.8,39.2,422.2,35.7,Deep,34.5,27.7,37.7,5.3,34.4,30.6,311.4,2.48,59.2,Jowar,Yes,10.57
511,ANAND,Umreth,22.6990518,73.115045,4,2016,Loam,6.54,0.73,0.56,412.3,32.6,631.6,18.9,Shallow,29.1,23.7,35.3,1.0,35.7,14.2,415.9,2.54,21.3,Groundnut,Yes,15.53
512,DAHOD,Fatepura,22.87978639169436,74.10500860548173,11,2021,Silty,7.26,2.92,1.61,249.3,40.6,387.8,35.8,Deep,22.4,17.4,26.4,19.4,41.9,80.0,436.9,4.9,32.8,Wheat,Yes,21.99
513,PATAN,Saraswati,23.875171,72.166746,1,2017,Loam,6.89,2.57,0.35,436.6,48.5,537.0,29.9,Medium,12.8,8.4,16.1,8.1,45.1,18.4,440.4,2.61,69.0,Wheat,Yes,25.9
514,RAJKOT,Dhoraji,21.7220402,70.4443401,11,2020,Silty,6.25,1.21,1.5,289.3,7.2,687.9,38.4,Shallow,15.7,12.8,22.7,8.0,45.0,14.5,269.4,3.05,40.5,Wheat,Yes,20.69
515,DEVBHUMI,DWARKA,22.2424747,68.9671448,9,2014,Black Cotton,7.48,1.78,0.93,388.9,7.0,556.6,33.3,Deep,32.0,25.7,35.7,339.4,78.6,27.4,217.1,4.11,85.6,Urad (Black Gram),Yes,9.67
516,DANGS,Ahwa,20.7587262,73.6873533,4,2023,Silty,7.35,3.54,0.83,297.0,59.5,186.9,44.6,Shallow,33.0,25.1,37.3,20.4,50.5,23.0,315.8,4.2,67.5,Urad (Black Gram),No,4.184364005706646
517,AHMADABAD,Dholka,22.726607,72.4411863,11,2019,Black Cotton,6.54,0.66,1.26,366.8,33.6,231.3,27.5,Shallow,12.8,7.8,17.3,3.8,44.9,19.6,1152.6,3.48,61.9,Mustard,Yes,9.54
518,MAHESANA,Mahesana,23.6015557,72.3867981,2,2016,Black Cotton,7.24,1.48,1.36,227.1,23.2,102.7,9.0,Medium,20.0,15.6,22.3,18.3,40.5,20.0,1170.3,3.58,32.7,Onion,Yes,241.44
519,KHEDA,Galteshwar,22.8686619,73.3084119,4,2020,Silty,6.28,3.23,0.67,311.1,37.6,604.6,6.3,Shallow,28.1,20.3,30.6,19.8,48.1,28.3,1182.3,1.91,20.5,Bajra,No,13.924311391375412
520,BHAVNAGAR,Gariadhar,21.5385705,71.5792958,2,2023,Loam,6.03,1.27,0.27,498.3,9.5,75.7,2.0,Shallow,24.6,20.9,27.9,16.4,48.4,7.8,823.9,2.61,38.3,Jowar,Yes,13.73
521,DAHOD,Limkheda,22.834878,73.9846526,1,2018,Silty,6.87,2.68,1.28,410.8,24.7,380.8,14.6,Deep,17.0,11.0,23.2,15.8,35.8,21.9,910.2,2.1,12.0,Wheat,Yes,30.6
522,DAHOD,Limkheda,22.834878,73.9846526,12,2019,Silty,7.35,2.89,0.84,87.6,40.4,662.7,25.7,Deep,21.5,17.2,25.3,5.8,37.5,7.5,1046.2,5.99,31.5,Chickpea,Yes,15.78
523,PANCHMAHALS,Godhra,22.829248945454545,73.03712348181818,12,2019,Black Cotton,6.85,1.29,1.66,296.3,43.5,54.8,35.7,Medium,19.9,16.5,26.3,12.0,43.3,80.0,1105.9,5.54,34.6,Chickpea,Yes,17.13
524,BHAVNAGAR,Vallabhipur,21.8885909,71.8781618,9,2021,Loam,6.18,1.36,1.22,376.2,32.8,395.1,40.3,Deep,28.6,23.9,34.6,410.2,85.4,24.5,556.8,3.73,89.9,Castor,Yes,13.6
525,MAHESANA,Vadnagar,23.7853622,72.6332132,10,2021,Silty,6.24,1.29,1.1,241.2,21.5,473.8,3.7,Shallow,30.1,26.8,33.2,45.4,51.0,13.9,229.4,2.01,19.0,Soybean,Yes,12.86
526,SABARKANTHA,Poshina,24.3731337,73.0324745,8,2014,Silty,6.18,2.66,0.59,84.5,17.9,693.0,26.1,Medium,30.5,27.0,34.1,139.2,53.5,9.1,1064.9,4.96,43.8,Moong (Green Gram),No,5.014578723708377
527,PATAN,Sidhpur,23.9657978,72.3367423,5,2018,Silty,6.97,2.57,0.23,103.1,11.7,659.1,43.0,Shallow,37.7,33.0,40.3,24.1,34.8,32.3,978.5,4.21,17.8,Jowar,Yes,12.183101983714351
528,BHAVNAGAR,Gariadhar,21.5385705,71.5792958,9,2017,Silty,7.33,3.65,1.15,485.6,47.2,694.9,9.0,Medium,31.6,25.8,38.2,195.9,50.2,35.2,905.1,3.18,96.7,Jowar,Yes,14.64
529,PATAN,Chanasma,23.7150529,72.1150247,12,2015,Loam,6.98,3.74,1.43,292.0,30.2,259.4,17.9,Shallow,16.1,11.9,21.4,0.7,36.8,31.7,256.7,3.58,35.3,Chickpea,Yes,16.68
530,BHAVNAGAR,Umrala,21.8437449,71.8049299,9,2022,Black Cotton,7.94,0.52,1.48,399.5,40.1,209.9,25.1,Medium,32.5,29.7,39.3,207.5,55.9,18.7,291.6,2.66,73.3,Jowar,No,12.743997437713094
531,NAVSARI,Navsari,20.952407,72.9323831,6,2018,Loam,7.33,3.48,1.68,313.4,51.8,285.6,6.1,Medium,27.3,24.8,32.2,387.4,69.7,16.5,778.9,3.83,100.0,Castor,Yes,12.37
532,SURAT,Bardoli,21.1338291,73.1053896,2,2018,Silty,7.04,0.21,1.66,227.5,41.2,224.9,4.2,Shallow,24.1,17.2,26.3,1.2,38.2,9.4,400.3,6.69,63.4,Moong (Green Gram),Yes,9.8
533,AMRELI,Khambha,21.1410665,71.2537125,8,2014,Loam,7.42,0.55,1.35,416.4,42.5,205.1,19.5,Deep,26.4,21.1,29.3,439.6,75.1,12.6,663.7,0.76,100.0,Cotton,Yes,16.38
534,JUNAGADH,Mendarda,21.3232985,70.4425757,12,2015,Silty,6.32,2.44,0.1,83.9,37.5,535.4,31.7,Deep,20.5,18.3,23.2,3.0,50.3,31.2,943.2,5.41,14.2,Wheat,Yes,27.88
535,PANCHMAHALS,Ghoghamba,22.829248945454545,73.03712348181818,7,2014,Loam,6.59,1.82,0.35,334.5,11.8,289.7,44.0,Medium,31.3,28.1,36.5,616.8,95.0,80.0,756.8,2.23,100.0,Castor,No,9.95494616162576
536,NAVSARI,Khergam,20.6313585,73.0951202,12,2014,Silty,7.18,0.86,0.29,165.0,20.6,165.1,35.1,Medium,19.9,15.2,25.1,13.5,45.1,15.3,696.2,3.88,18.1,Wheat,Yes,27.85
537,BANASKANTHA,Kankrej,24.0387783,71.9411013,9,2022,Silty,7.07,0.48,1.33,275.4,42.9,226.7,30.3,Medium,24.0,20.3,27.2,498.8,95.0,31.9,635.6,2.29,100.0,Maize,Yes,22.97
538,BANASKANTHA,Deesa,24.2594977,72.1803348,6,2014,Silty,6.76,1.71,0.68,256.1,15.3,526.2,33.0,Medium,31.1,23.3,36.4,238.2,65.1,17.9,491.8,3.93,100.0,Urad (Black Gram),No,4.506545241887852
539,RAJKOT,Lodhika,22.1328248,70.6322346,9,2020,Loam,6.91,0.46,1.62,138.7,52.7,183.2,19.7,Deep,30.6,24.2,33.3,184.9,52.9,8.5,401.2,5.67,68.6,Urad (Black Gram),Yes,9.49
540,BHAVNAGAR,Vallabhipur,21.8885909,71.8781618,2,2023,Loam,7.4,3.17,1.01,325.7,46.9,78.7,31.6,Deep,21.3,13.3,25.7,3.3,46.2,36.4,343.4,4.5,20.6,Onion,Yes,181.46
541,VALSAD,Kaprada,20.3445867,73.2166457,1,2016,Black Cotton,7.34,2.53,0.14,159.4,14.5,152.0,33.7,Deep,24.2,19.5,26.5,2.5,42.6,6.7,938.2,5.61,29.3,Wheat,Yes,22.8
542,MAHISAGAR,Khanpur,23.3263907,73.6238021,8,2016,Silty,6.25,1.53,1.01,351.7,54.1,120.5,34.9,Shallow,27.7,21.4,30.5,125.7,56.8,36.7,691.5,5.87,68.6,Cumin,No,3.4475172121685365
543,DANGS,Ahwa,20.7587262,73.6873533,4,2023,Silty,6.86,2.46,1.45,161.2,19.3,189.2,33.5,Shallow,32.2,26.7,34.7,5.4,46.5,10.2,298.4,5.66,40.8,Bajra,No,10.749537661116484
544,SURENDRANAGAR,Chotila,22.4243903,71.1992399,9,2014,Loam,7.22,0.97,0.31,456.8,33.0,444.5,40.0,Shallow,26.9,21.6,30.2,402.5,86.8,6.8,514.7,4.18,94.6,Rice,Yes,39.96
545,AHMADABAD,Bavla,22.8278859,72.3684741,2,2022,Black Cotton,7.93,1.87,1.26,496.6,23.6,71.5,2.5,Shallow,21.0,18.0,23.4,15.6,46.4,27.8,319.2,5.36,39.4,Wheat,Yes,28.87
546,SABARKANTHA,Vadali,23.9411124,73.0403755,1,2023,Silty,6.5,1.45,0.74,84.1,55.3,469.6,34.4,Medium,19.1,15.4,23.8,2.2,40.7,32.5,391.9,6.11,24.2,Wheat,Yes,26.05
547,BANASKANTHA,Deodar,24.1920148,71.7893701,1,2023,Loam,7.36,3.55,0.74,329.2,9.9,520.5,13.8,Shallow,20.9,17.5,24.2,6.3,37.1,28.5,594.8,6.08,57.3,Wheat,Yes,21.54
549,SURAT,Kamrej,21.2797773,72.948269,9,2017,Loam,6.71,3.07,1.0,60.2,19.7,150.7,4.8,Deep,30.4,24.4,35.6,326.3,68.8,16.0,106.5,4.77,100.0,Rice,Yes,23.89
550,KACHCHH,Bhuj,23.2472446,69.668339,2,2018,Silty,7.13,3.3,0.6,491.6,26.4,280.5,34.3,Medium,13.4,9.4,18.8,16.5,45.3,15.3,1153.0,6.48,9.8,Wheat,Yes,28.65
551,JAMNAGAR,Jodiya,22.6925104,70.3054102,9,2022,Loam,6.81,2.94,0.73,291.4,32.6,166.0,44.2,Medium,25.5,21.5,30.9,545.0,90.3,27.4,921.0,0.73,100.0,Maize,Yes,29.01
552,SABARKANTHA,Khedbrahma,24.0310837,73.0484016,7,2015,Silty,6.21,0.61,0.27,74.5,38.0,392.0,33.0,Shallow,29.6,26.4,34.8,304.7,64.8,19.8,404.5,1.61,100.0,Urad (Black Gram),Yes,9.4
553,NAVSARI,Chikhli,20.7581399,73.0598983,7,2019,Loam,6.98,2.03,0.79,289.7,52.5,629.7,2.5,Shallow,25.0,20.5,28.7,229.6,64.0,34.9,632.9,0.92,95.7,Jowar,Yes,11.94
554,DAHOD,Sanjeli,23.0583328,73.9710668,1,2020,Black Cotton,7.68,1.6,1.14,192.5,53.7,99.6,28.0,Shallow,22.1,18.7,25.6,14.5,42.0,17.8,267.8,2.63,72.7,Wheat,Yes,32.06
555,BHARUCH,Vagra,21.8447606,72.8448749,8,2017,Silty,6.57,1.7,0.26,468.9,43.2,607.2,14.6,Deep,32.9,26.1,35.0,283.6,63.1,38.3,515.4,5.41,100.0,Jowar,Yes,14.49
556,MAHESANA,Satlasana,24.0246132,72.7933287,1,2017,Silty,7.42,1.48,0.78,315.5,50.0,545.8,18.6,Deep,17.7,14.4,20.6,8.5,48.8,18.0,1022.3,4.51,18.6,Wheat,Yes,24.08
557,JAMNAGAR,Jodiya,22.6925104,70.3054102,4,2023,Black Cotton,8.16,1.2,1.74,84.4,21.7,410.4,36.1,Medium,31.7,25.3,38.3,20.1,42.6,19.3,441.3,5.13,49.0,Jowar,Yes,13.36
558,SABARKANTHA,Vadali,23.9411124,73.0403755,10,2023,Silty,6.43,1.19,1.08,469.4,44.3,344.5,13.0,Shallow,27.5,21.8,31.6,32.5,49.4,36.0,857.7,5.99,53.2,Jowar,Yes,14.45
559,KHEDA,Nadiad,22.6895535,72.8713603,5,2022,Loam,7.21,1.5,0.75,477.4,18.7,264.7,6.4,Shallow,39.5,31.8,45.8,20.0,49.8,9.4,1037.2,5.94,23.5,Bajra,Yes,14.26
560,NAVSARI,Khergam,20.6313585,73.0951202,12,2023,Loam,7.2,1.92,0.78,85.3,47.0,682.0,3.3,Medium,13.5,7.9,16.6,3.0,36.8,28.8,1111.0,5.24,64.0,Wheat,Yes,24.97
561,JAMNAGAR,Jamnagar,22.4732415,70.0552102,6,2014,Silty,7.13,0.52,0.34,356.7,38.6,271.9,25.6,Shallow,32.2,29.6,37.5,353.9,76.4,25.1,400.5,3.38,100.0,Rice,Yes,25.45
562,AMRELI,Savar,21.3447388,71.3138041,9,2017,Silty,7.33,3.92,1.38,148.4,15.6,223.6,25.3,Shallow,31.9,24.8,38.4,487.7,95.0,11.0,720.9,0.5,100.0,Castor,No,8.008328742392932
563,KACHCHH,Gandhidham,23.0718743,70.131715,9,2020,Loam,6.36,2.69,1.48,187.4,58.3,605.4,4.1,Shallow,26.7,24.3,31.8,347.7,79.5,6.9,463.5,1.15,100.0,Rice,Yes,20.94
564,AMRELI,Savar,21.3447388,71.3138041,11,2017,Silty,6.36,3.59,0.85,311.5,26.5,87.8,42.5,Shallow,23.8,21.7,26.5,12.8,47.3,31.4,711.1,5.07,38.4,Jowar,Yes,13.31
565,AMRELI,Lilia,21.5405819,71.392995,1,2018,Silty,7.21,2.71,0.55,486.0,15.9,345.0,5.8,Shallow,17.4,9.6,21.1,19.1,34.1,24.3,315.6,1.95,64.0,Sesame,No,4.410073409518147
566,KACHCHH,Bhachau,23.3040626,70.3507333,7,2017,Loam,6.99,3.92,0.64,249.8,35.0,684.7,18.2,Shallow,26.2,23.9,29.5,252.9,74.5,35.3,430.4,1.44,81.3,Jowar,No,12.63081088017125
567,NAVSARI,Khergam,20.6313585,73.0951202,11,2017,Silty,7.47,1.62,1.01,466.0,54.8,531.6,23.5,Deep,15.6,10.7,18.1,2.2,46.6,24.4,422.2,5.13,22.4,Wheat,Yes,28.18
568,ARAVALLI,Modasa,23.4634245,73.2990631,8,2023,Loam,6.77,3.47,0.49,416.6,18.4,124.7,24.2,Deep,28.4,20.6,34.2,320.5,62.5,33.2,648.9,4.0,97.0,Rice,Yes,19.34
569,TAPI,Vyara,21.1176744,73.3857702,7,2017,Black Cotton,8.0,0.63,1.45,201.6,5.1,401.4,5.6,Shallow,31.1,25.0,38.1,167.4,59.9,6.2,484.6,6.1,99.4,Moong (Green Gram),Yes,9.33
570,ANAND,Borsad,22.4094019,72.905252,10,2015,Loam,6.55,1.62,0.88,309.3,7.2,433.9,35.2,Medium,28.1,20.4,34.4,22.6,34.8,37.7,1047.0,5.88,71.4,Jowar,Yes,12.8
571,NARMADA,Nandod,21.8429212,73.4495407,9,2018,Silty,6.88,1.23,1.13,427.7,38.5,409.8,4.8,Shallow,28.7,21.2,34.8,235.8,67.5,21.1,471.2,1.72,100.0,Urad (Black Gram),No,4.414628784396824
572,MORBI,MALIYA,23.0931749,70.7599456,8,2023,Clay,6.72,0.36,1.14,368.1,41.5,349.9,28.2,Medium,25.0,18.7,29.5,339.1,67.0,34.3,384.6,3.18,100.0,Cotton,Yes,15.99
573,SABARKANTHA,Vijaynagar,23.9531558,73.2815255,6,2017,Loam,7.37,3.54,1.23,437.9,46.6,303.6,33.3,Medium,30.7,25.4,34.1,321.4,77.7,17.6,445.1,1.65,100.0,Rice,Yes,29.02
574,JAMNAGAR,Jamjodhpur,21.9329709,70.0297614,11,2017,Loam,7.19,2.97,1.54,401.1,50.7,194.4,42.4,Deep,25.4,22.9,28.2,22.2,45.8,16.5,745.3,3.58,73.7,Jowar,Yes,14.69
575,BANASKANTHA,Vav,24.363947,71.5123139,4,2023,Silty,6.21,2.14,1.43,203.9,17.3,694.4,23.7,Deep,32.7,25.0,37.3,15.0,50.5,24.9,257.4,3.52,39.7,Bajra,Yes,16.27
576,VALSAD,Umbergaon,20.1537655,72.7905804,10,2022,Loam,6.9,0.5,0.92,257.6,7.6,389.0,32.3,Deep,30.8,28.3,34.8,17.9,37.7,9.3,1027.3,2.92,22.7,Bajra,No,11.9713653713648
577,DAHOD,Fatepura,22.87978639169436,74.10500860548173,4,2015,Silty,6.93,1.3,0.13,321.8,57.4,147.3,39.2,Shallow,38.0,33.7,40.9,9.2,41.5,80.0,906.7,4.57,43.3,Bajra,Yes,13.56
578,CHHOTA,UDEPUR,22.3148736,74.0141067,9,2022,Black Cotton,8.24,1.43,0.38,94.3,23.2,575.9,36.8,Medium,32.4,25.9,36.5,341.7,74.9,15.6,898.6,0.98,100.0,Castor,No,11.026060281325028
579,DAHOD,Fatepura,22.87978639169436,74.10500860548173,6,2020,Silty,7.42,3.37,0.59,266.0,21.7,449.3,7.1,Shallow,29.5,22.2,35.8,699.3,95.0,80.0,254.2,0.5,100.0,Maize,Yes,21.61
580,BANASKANTHA,Palanpur,24.1709794,72.4366375,6,2019,Sandy,6.17,1.33,0.92,275.2,39.8,326.7,33.7,Deep,27.4,21.9,31.3,176.5,67.6,22.7,636.4,5.37,100.0,Sesame,No,3.1086262610105155
581,MORBI,Morvi,22.87621585614973,70.91882025454545,12,2016,Loam,6.38,3.39,1.77,360.7,55.6,237.1,42.8,Shallow,23.1,16.7,29.2,11.8,35.0,80.0,434.3,2.66,62.0,Mustard,Yes,11.62
582,SURAT,Kamrej,21.2797773,72.948269,5,2020,Silty,6.01,2.88,0.89,58.988617021197314,14.1,356.6,24.3,Shallow,30.9,27.3,35.2,14.1,50.9,25.3,495.3,2.61,17.9,Bajra,Yes,11.1
583,MAHESANA,Visnagar,23.6978037,72.5507598,7,2021,Silty,7.27,2.93,0.77,288.2,15.0,335.7,7.2,Medium,28.8,25.5,34.4,162.5,57.5,25.9,345.6,5.38,39.4,Cumin,No,3.891430780477837
584,JUNAGADH,Visavadar,21.3417058,70.7534299,2,2016,Black Cotton,6.87,1.34,1.55,65.4,21.7,409.5,8.2,Shallow,16.2,11.0,22.5,7.4,37.1,38.0,499.7,2.57,53.6,Wheat,Yes,28.65
585,KACHCHH,Mandvi,22.8314482,69.35081,10,2014,Silty,6.34,1.05,1.48,394.2,38.6,521.3,9.8,Medium,32.3,27.7,37.2,52.7,38.5,16.7,857.0,4.72,64.9,Bajra,Yes,10.6
586,KACHCHH,Anjar,23.1194278,70.0363797,9,2022,Loam,6.12,0.16,1.25,486.9,12.4,286.8,33.4,Deep,28.2,22.9,31.5,524.0,94.5,37.9,828.6,1.97,100.0,Cotton,Yes,22.19
587,KHEDA,Mahudha,22.8201982,72.9386868,6,2022,Loam,6.26,2.16,1.67,405.4,55.7,563.7,37.0,Shallow,26.0,19.1,31.2,178.4,64.9,25.7,264.8,1.44,95.0,Urad (Black Gram),No,4.458049125231019
588,BANASKANTHA,Bhabhar,24.0650833,71.6155279,11,2016,Silty,6.04,3.71,1.7,382.2,41.5,110.1,10.6,Medium,22.0,20.0,25.0,10.1,39.3,21.8,444.8,4.92,13.1,Wheat,Yes,21.77
589,ARAVALLI,Malpur,23.3594332,73.4649753,11,2015,Black Cotton,7.64,1.67,1.38,95.6,11.3,551.4,31.0,Shallow,18.6,12.3,21.2,1.5,39.1,31.0,877.9,6.62,54.7,Wheat,Yes,20.91
590,SURAT,Olpad,21.3360054,72.7516479,7,2020,Silty,6.17,0.1,0.4,335.8,41.6,246.0,24.4,Shallow,27.9,21.8,33.8,386.9,81.2,10.5,376.8,0.5,100.0,Rice,Yes,27.79
591,MORBI,MALIYA,23.0931749,70.7599456,6,2019,Black Cotton,6.72,3.17,1.48,375.9,5.1,655.0,32.8,Deep,26.0,23.4,28.1,473.7,95.0,9.3,274.8,1.75,100.0,Tur (Pigeon Pea),No,8.888032712959202
592,RAJKOT,Upleta,21.7466811,70.2821426,12,2015,Loam,6.3,3.96,1.68,228.6,24.9,155.3,11.9,Medium,14.5,12.0,20.1,5.7,39.1,25.7,638.9,2.62,62.0,Wheat,Yes,31.0
593,VADODARA,Savli,22.562511,73.2230996,4,2014,Black Cotton,7.77,1.18,0.52,88.6,38.9,640.2,19.4,Medium,39.0,33.3,44.9,13.5,38.8,26.3,982.7,3.67,26.2,Jowar,Yes,14.71
